id,amount_tsh,date_recorded,funder,gps_height,installer,longitude,latitude,wpt_name,num_private,basin,subvillage,region,region_code,district_code,lga,ward,population,public_meeting,recorded_by,scheme_management,scheme_name,permit,construction_year,extraction_type,extraction_type_group,extraction_type_class,management,management_group,payment,payment_type,water_quality,quality_group,quantity,quantity_group,source,source_type,source_class,waterpoint_type,waterpoint_type_group,status_group
69572,6000,3/14/2011,Roman,1390,Roman,34.93809275,-9.85632177,none,0,Lake Nyasa,Mnyusi B,Iringa,11,5,Ludewa,Mundindi,109,TRUE,GeoData Consultants Ltd,VWC,Roman,FALSE,1999,gravity,gravity,gravity,vwc,user-group,pay annually,annually,soft,good,enough,enough,spring,spring,groundwater,communal standpipe,communal standpipe,functional
8776,0,3/6/2013,Grumeti,1399,GRUMETI,34.6987661,-2.14746569,Zahanati,0,Lake Victoria,Nyamara,Mara,20,2,Serengeti,Natta,280,,GeoData Consultants Ltd,Other,,TRUE,2010,gravity,gravity,gravity,wug,user-group,never pay,never pay,soft,good,insufficient,insufficient,rainwater harvesting,rainwater harvesting,surface,communal standpipe,communal standpipe,functional
34310,25,2/25/2013,Lottery Club,686,World vision,37.46066446,-3.82132853,Kwa Mahundi,0,Pangani,Majengo,Manyara,21,4,Simanjiro,Ngorika,250,TRUE,GeoData Consultants Ltd,VWC,Nyumba ya mungu pipe scheme,TRUE,2009,gravity,gravity,gravity,vwc,user-group,pay per bucket,per bucket,soft,good,enough,enough,dam,dam,surface,communal standpipe multiple,communal standpipe,functional
67743,0,1/28/2013,Unicef,263,UNICEF,38.48616088,-11.15529772,Zahanati Ya Nanyumbu,0,Ruvuma / Southern Coast,Mahakamani,Mtwara,90,63,Nanyumbu,Nanyumbu,58,TRUE,GeoData Consultants Ltd,VWC,,TRUE,1986,submersible,submersible,submersible,vwc,user-group,never pay,never pay,soft,good,dry,dry,machine dbh,borehole,groundwater,communal standpipe multiple,communal standpipe,non functional
19728,0,7/13/2011,Action In A,0,Artisan,31.13084671,-1.82535885,Shuleni,0,Lake Victoria,Kyanyamisa,Kagera,18,1,Karagwe,Nyakasimbi,0,TRUE,GeoData Consultants Ltd,,,TRUE,0,gravity,gravity,gravity,other,other,never pay,never pay,soft,good,seasonal,seasonal,rainwater harvesting,rainwater harvesting,surface,communal standpipe,communal standpipe,functional
9944,20,3/13/2011,Mkinga Distric Coun,0,DWE,39.1727956,-4.76558728,Tajiri,0,Pangani,Moa/Mwereme,Tanga,4,8,Mkinga,Moa,1,TRUE,GeoData Consultants Ltd,VWC,Zingibali,TRUE,2009,submersible,submersible,submersible,vwc,user-group,pay per bucket,per bucket,salty,salty,enough,enough,other,other,unknown,communal standpipe multiple,communal standpipe,functional
19816,0,10/1/2012,Dwsp,0,DWSP,33.36240982,-3.76636472,Kwa Ngomho,0,Internal,Ishinabulandi,Shinyanga,17,3,Shinyanga Rural,Samuye,0,TRUE,GeoData Consultants Ltd,VWC,,TRUE,0,swn 80,swn 80,handpump,vwc,user-group,never pay,never pay,soft,good,enough,enough,machine dbh,borehole,groundwater,hand pump,hand pump,non functional
54551,0,10/9/2012,Rwssp,0,DWE,32.62061707,-4.22619802,Tushirikiane,0,Lake Tanganyika,Nyawishi Center,Shinyanga,17,3,Kahama,Chambo,0,TRUE,GeoData Consultants Ltd,,,TRUE,0,nira/tanira,nira/tanira,handpump,wug,user-group,unknown,unknown,milky,milky,enough,enough,shallow well,shallow well,groundwater,hand pump,hand pump,non functional
53934,0,11/3/2012,Wateraid,0,Water Aid,32.71110001,-5.14671181,Kwa Ramadhan Musa,0,Lake Tanganyika,Imalauduki,Tabora,14,6,Tabora Urban,Itetemia,0,TRUE,GeoData Consultants Ltd,VWC,,TRUE,0,india mark ii,india mark ii,handpump,vwc,user-group,never pay,never pay,salty,salty,seasonal,seasonal,machine dbh,borehole,groundwater,hand pump,hand pump,non functional
46144,0,8/3/2011,Isingiro Ho,0,Artisan,30.62699053,-1.25705061,Kwapeto,0,Lake Victoria,Mkonomre,Kagera,18,1,Karagwe,Kaisho,0,TRUE,GeoData Consultants Ltd,,,TRUE,0,nira/tanira,nira/tanira,handpump,vwc,user-group,never pay,never pay,soft,good,enough,enough,shallow well,shallow well,groundwater,hand pump,hand pump,functional
49056,0,2/20/2011,Private,62,Private,39.20951812,-7.03413939,Mzee Hokororo,0,Wami / Ruvu,Mizugo,Pwani,60,43,Mkuranga,Tambani,345,TRUE,GeoData Consultants Ltd,Private operator,,FALSE,2011,submersible,submersible,submersible,private operator,commercial,never pay,never pay,salty,salty,enough,enough,machine dbh,borehole,groundwater,other,other,functional
50409,200,2/18/2013,Danida,1062,DANIDA,35.77025785,-10.57417468,Kwa Alid Nchimbi,0,Lake Nyasa,Ngondombwito,Ruvuma,10,5,Namtumbo,Msindo,250,TRUE,GeoData Consultants Ltd,WUG,,FALSE,1987,swn 80,swn 80,handpump,wug,user-group,pay when scheme fails,on failure,soft,good,insufficient,insufficient,shallow well,shallow well,groundwater,hand pump,hand pump,functional
36957,0,10/14/2012,World Vision,0,World vision,33.79810612,-3.2901938,Pamba,0,Internal,Nkilifa,Shinyanga,17,2,Maswa,Busilili,0,TRUE,GeoData Consultants Ltd,WUG,,FALSE,0,nira/tanira,nira/tanira,handpump,wug,user-group,other,other,soft,good,enough,enough,shallow well,shallow well,groundwater,hand pump,hand pump,functional
50495,0,3/15/2013,Lawatefuka Water Supply,1368,Lawatefuka water sup,37.09257412,-3.1817833,Kwa John Izack Mmari,0,Pangani,Omarini,Kilimanjaro,3,7,Siha,Siha Kaskazini,1,TRUE,GeoData Consultants Ltd,Water Board,BL Bondeni,TRUE,2009,gravity,gravity,gravity,water board,user-group,pay monthly,monthly,soft,good,enough,enough,spring,spring,groundwater,communal standpipe,communal standpipe,functional
53752,0,10/20/2012,Biore,0,WEDECO,34.36407268,-3.62933335,Mwabasabi,0,Internal,Mwabasabi,Shinyanga,17,6,Meatu,Nkoma,0,TRUE,GeoData Consultants Ltd,WUG,None,TRUE,0,nira/tanira,nira/tanira,handpump,wug,user-group,never pay,never pay,soft,good,enough,enough,shallow well,shallow well,groundwater,hand pump,hand pump,functional
61848,0,8/4/2011,Rudep,1645,DWE,31.44412134,-8.27496163,Kwa Juvenal Ching'Ombe,0,Lake Tanganyika,Tunzi,Rukwa,15,2,Sumbawanga Rural,Mkowe,200,TRUE,GeoData Consultants Ltd,VWC,,FALSE,1991,swn 80,swn 80,handpump,vwc,user-group,never pay,never pay,soft,good,enough,enough,machine dbh,borehole,groundwater,hand pump,hand pump,functional
48451,500,7/4/2011,Unicef,1703,DWE,34.64243884,-9.10618458,Kwa John Mtenzi,0,Rufiji,Kidudumo,Iringa,11,4,Njombe,Mdandu,35,TRUE,GeoData Consultants Ltd,WUA,wanging'ombe water supply s,TRUE,1978,gravity,gravity,gravity,wua,user-group,pay monthly,monthly,soft,good,dry,dry,river,river/lake,surface,communal standpipe,communal standpipe,non functional
58155,0,9/4/2011,Unicef,1656,DWE,34.56926611,-9.08551497,Kwa Rose Chaula,0,Rufiji,Yeriko,Iringa,11,4,Njombe,Usuka,50,TRUE,GeoData Consultants Ltd,WUA,wanging'ombe water supply s,TRUE,1978,gravity,gravity,gravity,wua,user-group,pay when scheme fails,on failure,soft,good,dry,dry,river,river/lake,surface,communal standpipe,communal standpipe,non functional
34169,0,7/22/2011,Hesawa,1162,DWE,32.92015381,-1.94786801,Ngomee,0,Lake Victoria,Center,Mwanza,19,1,Ukerewe,Ilangala,1000,,GeoData Consultants Ltd,,,TRUE,1999,other,other,other,vwc,user-group,never pay,never pay,milky,milky,insufficient,insufficient,spring,spring,groundwater,other,other,functional needs repair
18274,500,2/22/2011,Danida,1763,Danid,34.50896732,-9.8944125,none,0,Lake Nyasa,Manyanya,Iringa,11,5,Ludewa,Mawengi,1,TRUE,GeoData Consultants Ltd,VWC,Makanj,TRUE,1992,gravity,gravity,gravity,vwc,user-group,pay annually,annually,soft,good,enough,enough,spring,spring,groundwater,communal standpipe,communal standpipe,functional
48375,200,2/27/2011,Twe,2216,TWE,34.47342985,-9.59498965,none,0,Lake Nyasa,Majengo,Iringa,11,4,Njombe,Matola,4,TRUE,GeoData Consultants Ltd,VWC,Kidabu,FALSE,2008,gravity,gravity,gravity,vwc,user-group,pay monthly,monthly,soft,good,enough,enough,spring,spring,groundwater,communal standpipe,communal standpipe,functional
6091,0,2/10/2013,Dwsp,0,DWE,0,-2.00E-08,Muungano,0,Lake Victoria,Ibabachegu,Shinyanga,17,1,Bariadi,Ikungulyabashashi,0,,GeoData Consultants Ltd,WUG,,FALSE,0,swn 80,swn 80,handpump,wug,user-group,unknown,unknown,unknown,unknown,unknown,unknown,shallow well,shallow well,groundwater,hand pump,hand pump,functional
58500,0,10/4/2011,Unicef,1510,DWE,34.58690108,-8.98001429,Shuleni,0,Rufiji,Mkanivega,Iringa,11,4,Njombe,Usuka,350,TRUE,GeoData Consultants Ltd,WUA,wanging'ombe water supply s,TRUE,1978,gravity,gravity,gravity,wua,user-group,never pay,never pay,soft,good,enough,enough,river,river/lake,surface,communal standpipe,communal standpipe,functional needs repair
37862,500,11/3/2013,Isf,672,ISF,37.94002949,-4.12559468,Kinonga,0,Pangani,Mkonga Juu,Kilimanjaro,3,3,Same,Kisiwani,210,TRUE,GeoData Consultants Ltd,Water authority,Mashangwi,TRUE,2011,gravity,gravity,gravity,vwc,user-group,pay monthly,monthly,soft,good,enough,enough,river,river/lake,surface,communal standpipe,communal standpipe,functional
51058,0,1/21/2013,African Development Bank,1645,DWE,29.74706567,-4.49556758,Kamsasa,0,Lake Tanganyika,Msasa,Kigoma,16,3,Kigoma Rural,Mkigo,156,FALSE,GeoData Consultants Ltd,VWC,Quick wins Program,TRUE,2009,gravity,gravity,gravity,vwc,user-group,unknown,unknown,soft,good,enough,enough,spring,spring,groundwater,improved spring,improved spring,functional
22308,0,2/25/2013,Government Of Tanzania,1273,DWE,37.42275132,-3.31753648,Kwa Tukai,0,Pangani,Kitereni,Kilimanjaro,3,4,Moshi Rural,Kimochi,140,TRUE,GeoData Consultants Ltd,VWC,Komaka mandaka,TRUE,1974,gravity,gravity,gravity,vwc,user-group,unknown,unknown,soft,good,enough,enough,spring,spring,groundwater,communal standpipe,communal standpipe,functional needs repair
55012,500,1/16/2013,Sobodo,200,Kilolo Star,39.37077651,-9.94253166,Ruhoma Primary School,0,Ruvuma / Southern Coast,Shuleni,Lindi,80,23,Lindi Rural,Rutamba,260,FALSE,GeoData Consultants Ltd,VWC,Sobodo Borehole Scheme,FALSE,2011,india mark ii,india mark ii,handpump,vwc,user-group,pay monthly,monthly,soft,good,enough,enough,machine dbh,borehole,groundwater,hand pump,hand pump,functional
20145,0,7/11/2011,Hesawa,0,DWE,31.10425712,-1.73536124,Kwawilliam,0,Lake Victoria,Chakahaya,Kagera,18,1,Karagwe,Nyaishozi,0,TRUE,GeoData Consultants Ltd,,,TRUE,0,nira/tanira,nira/tanira,handpump,vwc,user-group,never pay,never pay,soft,good,enough,enough,shallow well,shallow well,groundwater,hand pump,hand pump,functional
19685,0,3/5/2013,Government Of Tanzania,1443,District council,37.61112572,-3.2635263,Kwa Kibakaya,0,Pangani,Kiyao,Kilimanjaro,3,1,Rombo,Mengwe Manda,1,TRUE,GeoData Consultants Ltd,Company,Kitukuni water supply,TRUE,2000,gravity,gravity,gravity,company,commercial,pay monthly,monthly,soft,good,insufficient,insufficient,spring,spring,groundwater,communal standpipe,communal standpipe,non functional
69124,0,3/16/2013,Lawatefuka Water Supply,1256,Lawatefuka water sup,37.06168837,-3.19198926,Kwa Willium Kinda,0,Pangani,Merali,Kilimanjaro,3,7,Siha,Siha Kati,1,TRUE,GeoData Consultants Ltd,Water Board,BL Mwakikoti,TRUE,2002,gravity,gravity,gravity,water board,user-group,pay monthly,monthly,soft,good,enough,enough,spring,spring,groundwater,communal standpipe,communal standpipe,functional
46804,0,3/23/2011,Water,0,Water,36.1083125,-5.79099991,Ngosi,0,Wami / Ruvu,Karume,Dodoma,1,4,Chamwino,Dabalo,0,TRUE,GeoData Consultants Ltd,VWC,,TRUE,0,nira/tanira,nira/tanira,handpump,vwc,user-group,never pay,never pay,soft,good,insufficient,insufficient,shallow well,shallow well,groundwater,hand pump,hand pump,functional
6696,50,3/16/2011,Private Individual,180,WU,38.36355454,-6.63610419,Kituo Cha Maziwa,0,Wami / Ruvu,Kudipera,Pwani,6,1,Bagamoyo,Chalinze,150,FALSE,GeoData Consultants Ltd,WUA,Chalinze wate,TRUE,2004,ksb,submersible,submersible,private operator,commercial,pay per bucket,per bucket,soft,good,enough,enough,river,river/lake,surface,communal standpipe,communal standpipe,functional
57238,0,3/19/2013,Government Of Tanzania,1481,DWE,37.49233371,-3.29062725,Kwa Philip Lyimo,0,Pangani,Mosheni,Kilimanjaro,3,4,Moshi Rural,Kilema  Kati,180,FALSE,GeoData Consultants Ltd,Other,Mae pipeline,TRUE,1972,gravity,gravity,gravity,other,other,never pay,never pay,soft,good,insufficient,insufficient,river,river/lake,surface,other,other,functional needs repair
12402,0,3/11/2011,Undp,1638,DWE,34.47835586,-9.71590954,none,0,Lake Nyasa,Lupanga A,Iringa,11,5,Ludewa,Lupanga,70,TRUE,GeoData Consultants Ltd,VWC,UNDP,FALSE,1992,gravity,gravity,gravity,vwc,user-group,pay when scheme fails,on failure,soft,good,seasonal,seasonal,spring,spring,groundwater,communal standpipe,communal standpipe,functional
41583,0,2/23/2011,,-41,,39.81291224,-7.8899863,Msikitini Wa Ijumaa,0,Rufiji,Kilombero B,Pwani,60,63,Mafia,Baleni,100,TRUE,GeoData Consultants Ltd,VWC,,FALSE,0,nira/tanira,nira/tanira,handpump,vwc,user-group,never pay,never pay,salty,salty,enough,enough,shallow well,shallow well,groundwater,hand pump,hand pump,functional
57355,0,3/28/2013,Not Known,1546,Not known,36.61869946,-3.29300336,Sekondari,0,Pangani,Afya,Arusha,2,2,Arusha Rural,Oltrumet,200,TRUE,GeoData Consultants Ltd,,,TRUE,2000,other,other,other,vwc,user-group,never pay,never pay,soft,good,seasonal,seasonal,rainwater harvesting,rainwater harvesting,surface,other,other,non functional
67359,0,7/16/2011,Danida,0,Central government,33.85434473,-9.63851993,Office Ya Kijiji,0,Lake Nyasa,Ndanganyika,Mbeya,12,3,Kyela,Katumbasongwe,0,TRUE,GeoData Consultants Ltd,VWC,Ngana water supplied scheme,TRUE,0,gravity,gravity,gravity,vwc,user-group,never pay,never pay,soft,good,dry,dry,spring,spring,groundwater,communal standpipe,communal standpipe,non functional
60048,0,3/27/2011,Kirde,0,DWE,35.85837259,-4.6479063,Tangi,0,Internal,Baura,Dodoma,1,1,Kondoa,Mnenia,0,TRUE,GeoData Consultants Ltd,VWC,Itun,FALSE,0,gravity,gravity,gravity,vwc,user-group,pay monthly,monthly,soft,good,enough,enough,spring,spring,groundwater,communal standpipe,communal standpipe,functional
16583,4000,2/20/2011,Cefa,1955,CEFA,35.89026429,-8.22439872,none,0,Rufiji,Mwanzala,Iringa,11,7,Kilolo,Boma la ng'ombe,100,TRUE,GeoData Consultants Ltd,VWC,Bomala,TRUE,2003,gravity,gravity,gravity,vwc,user-group,pay annually,annually,soft,good,enough,enough,river,river/lake,surface,communal standpipe,communal standpipe,functional
25,0,2/11/2013,Government Of Tanzania,1348,DWE,30.6133054,-3.89456056,Mkuyuni,0,Lake Tanganyika,Nyabwai B,Kigoma,16,1,Kibondo,Rugongowe,230,TRUE,GeoData Consultants Ltd,VWC,,FALSE,2002,nira/tanira,nira/tanira,handpump,vwc,user-group,unknown,unknown,soft,good,seasonal,seasonal,shallow well,shallow well,groundwater,hand pump,hand pump,non functional
70238,25,10/3/2013,Ces(gmbh),710,DWE,37.42002692,-3.47684942,Kwa Lusina,0,Pangani,Reli B,Kilimanjaro,3,4,Moshi Rural,Kahe,50,TRUE,GeoData Consultants Ltd,Water Board,Kirua kahe pumping water trust,TRUE,2008,submersible,submersible,submersible,water board,user-group,pay per bucket,per bucket,soft,good,enough,enough,machine dbh,borehole,groundwater,communal standpipe,communal standpipe,functional
12796,500,3/12/2011,Government Of Tanzania,2469,Commu,33.92790176,-9.20464923,none,0,Lake Nyasa,Kilunduwe,Iringa,11,3,Makete,Ipelele,0,TRUE,GeoData Consultants Ltd,VWC,Misiwa,FALSE,1986,gravity,gravity,gravity,vwc,user-group,pay when scheme fails,on failure,soft,good,enough,enough,spring,spring,groundwater,communal standpipe,communal standpipe,functional
52019,500,7/7/2011,European Union,1803,Accra,34.81457364,-9.03250291,Zahanati-Misssion,0,Rufiji,Sokoni,Iringa,11,4,Njombe,Mtwango,250,TRUE,GeoData Consultants Ltd,WUG,Mtwango water supplied sche,TRUE,2011,gravity,gravity,gravity,wug,user-group,pay monthly,monthly,soft,good,enough,enough,spring,spring,groundwater,communal standpipe,communal standpipe,functional
19282,0,1/15/2013,,1642,,34.96778863,-4.62892053,Mvae Primary,0,Internal,Mwarufyu,Singida,13,2,Singida Rural,Merya,1,TRUE,GeoData Consultants Ltd,VWC,K,,1980,mono,mono,motorpump,vwc,user-group,unknown,unknown,unknown,unknown,dry,dry,machine dbh,borehole,groundwater,communal standpipe,communal standpipe,non functional
1843,20,3/18/2013,Government Of Tanzania,1007,DWE,36.80607857,-3.47855934,Kwa Bariki,0,Pangani,Marurani Juu,Arusha,2,2,Arusha Rural,Nduruma,100,TRUE,GeoData Consultants Ltd,VWC,Machumba estate pipe line,TRUE,2000,gravity,gravity,gravity,vwc,user-group,pay per bucket,per bucket,soft,good,insufficient,insufficient,spring,spring,groundwater,communal standpipe,communal standpipe,functional needs repair
12958,0,10/22/2012,World Vision,0,World Vision,33.34526033,-3.83899753,Shimasa,0,Internal,Isenegeja,Shinyanga,17,3,Shinyanga Rural,Samuye,0,TRUE,GeoData Consultants Ltd,WUG,SHIMASA,TRUE,0,windmill,wind-powered,wind-powered,wug,user-group,pay when scheme fails,on failure,soft,good,enough,enough,machine dbh,borehole,groundwater,communal standpipe,communal standpipe,non functional
45111,20,2/5/2013,Lga,240,LGA,39.08741514,-11.00060373,Mikoroshini,0,Ruvuma / Southern Coast,Kachulu,Mtwara,90,33,Masasi,Sindano,30,TRUE,GeoData Consultants Ltd,VWC,,TRUE,2004,gravity,gravity,gravity,vwc,user-group,pay per bucket,per bucket,soft,good,enough,enough,spring,spring,groundwater,communal standpipe,communal standpipe,functional needs repair
13620,0,7/27/2011,,0,,33.5406067,-9.17290468,Mahakamani,0,Lake Nyasa,Mpandapanda,Mbeya,12,4,Rungwe,Kiwira,0,TRUE,GeoData Consultants Ltd,VWC,K,,0,gravity,gravity,gravity,vwc,user-group,never pay,never pay,soft,good,enough,enough,spring,spring,groundwater,communal standpipe,communal standpipe,functional
18864,4000,2/20/2011,Cefa,1982,CEFA,35.87141325,-8.22756303,none,0,Rufiji,Mlandege Juu,Iringa,11,7,Kilolo,Boma la ng'ombe,70,TRUE,GeoData Consultants Ltd,VWC,Bomala,TRUE,2003,gravity,gravity,gravity,vwc,user-group,pay annually,annually,soft,good,enough,enough,spring,spring,groundwater,communal standpipe,communal standpipe,functional
25182,1500,4/4/2011,District Council,2169,DWE,34.44128349,-9.18987766,Kwa Bryson Msigwa,0,Rufiji,Ikanga,Iringa,11,4,Njombe,Wangama,20,TRUE,GeoData Consultants Ltd,VWC,wangama water supply scheme,TRUE,2007,gravity,gravity,gravity,vwc,user-group,pay annually,annually,soft,good,enough,enough,spring,spring,groundwater,communal standpipe,communal standpipe,functional
3228,20,2/21/2013,Muwsa,783,MUWSA,37.37285829,-3.34929238,Upendo,0,Pangani,Msaranga Street,Kilimanjaro,3,6,Moshi Urban,Msaranga,10,TRUE,GeoData Consultants Ltd,Water authority,Shirimatunda Water Supply,TRUE,2008,gravity,gravity,gravity,water authority,commercial,pay per bucket,per bucket,soft,good,insufficient,insufficient,spring,spring,groundwater,communal standpipe,communal standpipe,functional
19308,0,8/18/2011,Dwe/norad,1545,DWE,32.04683486,-8.57166114,Kwa Kobelo,0,Lake Rukwa,Maporomoko,Rukwa,15,2,Sumbawanga Rural,Laela,200,TRUE,GeoData Consultants Ltd,VWC,Laela group water Supp,TRUE,1973,gravity,gravity,gravity,vwc,user-group,never pay,never pay,soft,good,dry,dry,river,river/lake,surface,communal standpipe,communal standpipe,non functional
10745,0,7/31/2011,Kkkt_makwale,0,KKKT _ Konde and DWE,33.95816322,-9.44812238,Kwa Abeli Mwamakula,0,Lake Nyasa,Isimba,Mbeya,12,3,Kyela,Makwale,0,TRUE,GeoData Consultants Ltd,VWC,Makwale water supplied sche,TRUE,0,gravity,gravity,gravity,vwc,user-group,never pay,never pay,soft,good,enough,enough,spring,spring,groundwater,communal standpipe,communal standpipe,functional
32376,0,8/1/2011,Government Of Tanzania,0,Government,0,-2.00E-08,Polisi,0,Lake Victoria,Center,Mwanza,19,6,Geita,Nyang'hwale,0,TRUE,GeoData Consultants Ltd,VWC,Nyang'hwale,TRUE,0,submersible,submersible,submersible,vwc,user-group,unknown,unknown,unknown,unknown,dry,dry,machine dbh,borehole,groundwater,communal standpipe multiple,communal standpipe,non functional
9417,0,7/14/2011,Sawaka,0,Artisan,30.98302258,-1.68065404,Sawaka,0,Lake Victoria,Kagoye B,Kagera,18,1,Karagwe,Kiruruma,0,TRUE,GeoData Consultants Ltd,,,TRUE,0,gravity,gravity,gravity,private operator,commercial,never pay,never pay,soft,good,dry,dry,rainwater harvesting,rainwater harvesting,surface,communal standpipe,communal standpipe,functional
68724,20,2/22/2013,Muwsa,766,MUWSA,37.34816881,-3.35653763,Environment,0,Pangani,Dhobi Street,Kilimanjaro,3,6,Moshi Urban,Njoro,1,TRUE,GeoData Consultants Ltd,Water authority,Njoro Water Supply,TRUE,2008,gravity,gravity,gravity,water authority,commercial,pay per bucket,per bucket,soft,good,insufficient,insufficient,spring,spring,groundwater,communal standpipe multiple,communal standpipe,non functional
74197,6,7/3/2013,Ces (gmbh),962,DWE,37.47943592,-3.36819761,Kwa Emanuel Moshi,0,Pangani,Msufini,Kilimanjaro,3,4,Moshi Rural,Kurua Vunjo Mashariki,45,TRUE,GeoData Consultants Ltd,Water Board,Kirua kahe gravity water supply trust,TRUE,2008,gravity,gravity,gravity,water board,user-group,pay per bucket,per bucket,soft,good,enough,enough,spring,spring,groundwater,communal standpipe,communal standpipe,functional
22961,0,8/3/2013,Olgilai Village Community,1583,Olgilai village community,36.72112734,-3.33981163,Zahanati,0,Pangani,Soyekiutu,Arusha,2,2,Arusha Rural,Oltroto,150,TRUE,GeoData Consultants Ltd,VWC,Olgilai pipe line,TRUE,2009,gravity,gravity,gravity,vwc,user-group,never pay,never pay,soft,good,enough,enough,spring,spring,groundwater,communal standpipe,communal standpipe,non functional
24593,0,1/22/2013,Kkkt,1703,KKKT,35.56134607,-3.80687858,Kwa Iyora Mgirigisi,0,Internal,Ants B,Manyara,21,3,Mbulu,Bargish,456,,GeoData Consultants Ltd,WUG,,TRUE,2000,nira/tanira,nira/tanira,handpump,wug,user-group,never pay,never pay,soft,good,enough,enough,shallow well,shallow well,groundwater,hand pump,hand pump,functional
31714,0,7/7/2011,Government Of Tanzania,0,DWE,31.45428168,-1.56388609,Kwa Mzee Max,0,Lake Victoria,Izimbya 'A',Kagera,18,2,Bukoba Rural,Izimbya,0,TRUE,GeoData Consultants Ltd,VWC,,TRUE,0,swn 80,swn 80,handpump,vwc,user-group,never pay,never pay,soft,good,enough,enough,shallow well,shallow well,groundwater,hand pump,hand pump,functional needs repair
29952,0,3/13/2011,Roman Catholic,190,DWE,38.78943655,-5.11324963,Kwakhalid,0,Pangani,Nairobi,Tanga,4,3,Muheza,Kicheba,200,TRUE,GeoData Consultants Ltd,VWC,Mabula mountains spr,FALSE,1999,gravity,gravity,gravity,vwc,user-group,never pay,never pay,soft,good,seasonal,seasonal,spring,spring,groundwater,communal standpipe,communal standpipe,functional
40393,0,3/22/2011,Government Of Tanzania,1670,DWE,38.37667127,-4.6472895,Kwamussa Chabega,0,Pangani,Nkaloi,Tanga,4,1,Lushoto,Hemtoye,1,TRUE,GeoData Consultants Ltd,VWC,,TRUE,1992,other,other,other,vwc,user-group,never pay,never pay,soft,good,enough,enough,shallow well,shallow well,groundwater,other,other,non functional
2127,500,1/16/2013,Norad,954,RWE,29.66972029,-4.77975837,Kwa Jakata,0,Lake Tanganyika,Kiganza Centre,Kigoma,16,3,Kigoma Rural,Kagongo,567,TRUE,GeoData Consultants Ltd,VWC,Mkongoro One,TRUE,1985,gravity,gravity,gravity,vwc,user-group,pay monthly,monthly,soft,good,enough,enough,river,river/lake,surface,communal standpipe multiple,communal standpipe,functional needs repair
8265,0,5/3/2013,Adra,1365,Adra /Community,36.94745079,-3.35002587,Thadayo,0,Pangani,Ulkusare,Arusha,2,7,Meru,Kikatiti,130,TRUE,GeoData Consultants Ltd,VWC,Maambreni gravity water supply,TRUE,2002,gravity,gravity,gravity,vwc,user-group,unknown,unknown,soft,good,insufficient,insufficient,river,river/lake,surface,communal standpipe,communal standpipe,non functional
67433,0,1/19/2013,Sema,1538,SEMA,34.76272634,-4.30776106,Kitumba,0,Internal,Mzimba,Singida,13,1,Iramba,Nduguti,225,TRUE,GeoData Consultants Ltd,WUG,Mwando water supply,TRUE,2004,afridev,afridev,handpump,wug,user-group,never pay,never pay,soft,good,enough,enough,machine dbh,borehole,groundwater,hand pump,hand pump,functional
51072,0,2/9/2013,,1415,,34.62159801,-5.17313618,Nyambi,0,Internal,Mfumbu,Singida,13,2,Singida Rural,Naintiri,1,TRUE,GeoData Consultants Ltd,VWC,M,,1970,mono,mono,motorpump,vwc,user-group,unknown,unknown,unknown,unknown,dry,dry,machine dbh,borehole,groundwater,communal standpipe,communal standpipe,non functional
34255,0,2/22/2011,Piusi,1788,SHIPO,34.89725735,-9.2035221,Kwa Piusi,0,Rufiji,Mahalule,Iringa,11,4,Njombe,Ikuka,50,TRUE,GeoData Consultants Ltd,Private operator,,TRUE,2010,other - rope pump,rope pump,rope pump,private operator,commercial,never pay,never pay,soft,good,enough,enough,hand dtw,borehole,groundwater,hand pump,hand pump,functional
22108,0,7/31/2011,Government Of Tanzania,0,DWE,30.71609028,-1.2857798,Kwashuza,0,Lake Victoria,Kihanga,Kagera,18,1,Karagwe,Isingiro,0,TRUE,GeoData Consultants Ltd,WUG,Kaisho/Isingiro w,TRUE,0,gravity,gravity,gravity,vwc,user-group,never pay,never pay,soft,good,dry,dry,spring,spring,groundwater,other,other,non functional
4720,0,1/4/2011,Unicef,1366,DWE,34.55789311,-8.88959406,Kwa Mulumbage,0,Rufiji,Iponda,Iringa,11,4,Njombe,Ilembula,54,TRUE,GeoData Consultants Ltd,WUA,wanging'ombe supply scheme,TRUE,1978,gravity,gravity,gravity,wua,user-group,pay when scheme fails,on failure,soft,good,dry,dry,river,river/lake,surface,communal standpipe,communal standpipe,non functional
54801,0,2/4/2013,Government Of Tanzania,1694,DWE,29.76800862,-4.47180947,Zahanati,0,Lake Tanganyika,Kisoro,Kigoma,16,2,Kigoma Rural,Mkigo,1,TRUE,GeoData Consultants Ltd,Water authority,,FALSE,2004,other,other,other,private operator,commercial,never pay,never pay,soft,good,dry,dry,rainwater harvesting,rainwater harvesting,surface,communal standpipe,communal standpipe,non functional
21990,200,3/5/2011,Government Of Tanzania,303,RWE,35.81898147,-8.93495018,Kwampalanji,0,Rufiji,Mtakuja,Morogoro,5,3,Kilombero,Utengule,280,TRUE,GeoData Consultants Ltd,,,TRUE,1995,swn 80,swn 80,handpump,vwc,user-group,pay monthly,monthly,unknown,unknown,insufficient,insufficient,shallow well,shallow well,groundwater,hand pump,hand pump,non functional
17386,0,3/31/2011,,0,,34.46222769,-8.57578037,Kwa Manyusi Mlilo,0,Rufiji,Lembuka,Mbeya,12,7,Mbarali,Mawindi,0,TRUE,GeoData Consultants Ltd,VWC,,FALSE,0,gravity,gravity,gravity,vwc,user-group,never pay,never pay,soft,good,insufficient,insufficient,river,river/lake,surface,communal standpipe,communal standpipe,non functional
41609,0,4/4/2011,,0,,34.24718,-8.60751263,Kwa Mzee Mwalongo,0,Rufiji,Mapinduzi,Mbeya,12,7,Mbarali,Ubaruku,0,TRUE,GeoData Consultants Ltd,VWC,,TRUE,0,gravity,gravity,gravity,vwc,user-group,never pay,never pay,soft,good,seasonal,seasonal,river,river/lake,surface,communal standpipe,communal standpipe,non functional
35715,0,2/27/2013,Hesawa,1565,HESAWA,34.6570345,-1.88801974,Machumbe,0,Lake Victoria,Mtakuja,Mara,20,2,Serengeti,Manchira,200,,GeoData Consultants Ltd,Other,,TRUE,1991,nira/tanira,nira/tanira,handpump,wug,user-group,other,other,soft,good,insufficient,insufficient,shallow well,shallow well,groundwater,hand pump,hand pump,non functional
53970,500,1/16/2013,Dwe,1153,DWE,30.41995839,-4.27996794,Sekondari,0,Lake Tanganyika,Kalimungoma,Kigoma,16,2,Kasulu,Kitagata,1,TRUE,GeoData Consultants Ltd,Water authority,,FALSE,2009,nira/tanira,nira/tanira,handpump,vwc,user-group,pay when scheme fails,on failure,soft,good,enough,enough,shallow well,shallow well,groundwater,hand pump,hand pump,functional
62971,0,8/7/2011,,0,,31.79687285,-1.35148627,Kwa Jackson,0,Lake Victoria,Umkituri,Kagera,18,6,Bukoba Urban,Kibeta,0,TRUE,GeoData Consultants Ltd,VWC,,FALSE,0,submersible,submersible,submersible,vwc,user-group,never pay,never pay,soft,good,insufficient,insufficient,machine dbh,borehole,groundwater,communal standpipe multiple,communal standpipe,non functional
63542,500,3/23/2011,Rc Church,2049,ACRA,34.68047144,-9.3264772,Kwa Mkapa,0,Rufiji,Usita,Iringa,11,4,Njombe,Imalinyi,75,TRUE,GeoData Consultants Ltd,WUA,Tove Mtwango gravity Scheme,TRUE,2008,gravity,gravity,gravity,wua,user-group,pay monthly,monthly,soft,good,enough,enough,spring,spring,groundwater,communal standpipe,communal standpipe,functional
15622,0,3/18/2013,Government Of Tanzania,905,RWE,36.93165941,-3.55703413,Miembeni Primary School,0,Pangani,Komoro,Arusha,2,7,Meru,Mbuguni,140,TRUE,GeoData Consultants Ltd,VWC,Tengeru gravity water supply,TRUE,1974,gravity,gravity,gravity,vwc,user-group,unknown,unknown,soft,good,insufficient,insufficient,spring,spring,groundwater,communal standpipe,communal standpipe,functional
12903,0,3/30/2011,Government Of Tanzania,406,DWE,38.58082367,-4.8348356,Tawakali,0,Pangani,Kulasi Majengo,Tanga,4,2,Korogwe,Mashewa,900,TRUE,GeoData Consultants Ltd,VWC,Kulasi water supply,FALSE,1992,gravity,gravity,gravity,vwc,user-group,never pay,never pay,soft,good,dry,dry,river,river/lake,surface,communal standpipe,communal standpipe,non functional
52561,0,10/23/2012,World Vision,0,World vision,32.25500494,-3.36190077,Butimba,0,Lake Tanganyika,Butimba,Shinyanga,17,5,Bukombe,Ushirika,0,TRUE,GeoData Consultants Ltd,VWC,,TRUE,0,nira/tanira,nira/tanira,handpump,vwc,user-group,unknown,unknown,soft,good,insufficient,insufficient,shallow well,shallow well,groundwater,hand pump,hand pump,functional
19415,0,3/2/2011,Roman,2328,Commu,34.28447604,-9.27156548,none,0,Lake Nyasa,Ikovo,Iringa,11,3,Makete,Mang'oto,0,TRUE,GeoData Consultants Ltd,VWC,Malemb,FALSE,2002,gravity,gravity,gravity,vwc,user-group,never pay,never pay,soft,good,enough,enough,spring,spring,groundwater,communal standpipe,communal standpipe,functional
65531,0,3/4/2011,Roman,427,Roman,37.7229531,-7.02426273,Kwa Mzee Zewe,0,Wami / Ruvu,Dongo,Morogoro,5,2,Morogoro Rural,Tawa,100,TRUE,GeoData Consultants Ltd,VWC,Tawa,TRUE,2004,gravity,gravity,gravity,vwc,user-group,never pay,never pay,soft,good,enough,enough,river,river/lake,surface,communal standpipe,communal standpipe,functional needs repair
3675,0,3/14/2013,Swisland/ Mount Meru Flowers,1331,Community,36.75793224,-3.3747906,Lonange Secschool,0,Pangani,Moivaro,Arusha,2,7,Meru,Nkoanrua,360,TRUE,GeoData Consultants Ltd,WUA,Loruvani gravity water supply,TRUE,2011,gravity,gravity,gravity,wua,user-group,unknown,unknown,soft,good,enough,enough,spring,spring,groundwater,communal standpipe,communal standpipe,functional
34383,0,10/22/2012,Rwssp,0,DWE,33.53890869,-3.36161167,Lembo,0,Internal,Bushoma,Shinyanga,17,8,Kishapu,Mondo,0,TRUE,GeoData Consultants Ltd,WUG,,FALSE,0,nira/tanira,nira/tanira,handpump,wug,user-group,pay when scheme fails,on failure,soft,good,insufficient,insufficient,shallow well,shallow well,groundwater,hand pump,hand pump,functional
30423,0,10/18/2012,Ifad,1185,IFAD,34.19057512,-1.60969058,Shuleni,0,Lake Victoria,Shule,Mara,20,3,Musoma Rural,Buswahili,544,,GeoData Consultants Ltd,Parastatal,,FALSE,2002,gravity,gravity,gravity,parastatal,parastatal,unknown,unknown,soft,good,enough,enough,rainwater harvesting,rainwater harvesting,surface,hand pump,hand pump,non functional
68717,0,8/8/2011,Swedish,0,Sengerema Water Department,32.18551701,-2.37877187,Kwa Swakala,0,Lake Victoria,Bulyahilu Center B,Mwanza,19,5,Sengerema,Bupandwamhela,0,TRUE,GeoData Consultants Ltd,VWC,HESAWA,TRUE,0,nira/tanira,nira/tanira,handpump,vwc,user-group,never pay,never pay,soft,good,seasonal,seasonal,shallow well,shallow well,groundwater,hand pump,hand pump,non functional
3688,500,2/20/2011,Idc,1701,DWE,35.73447433,-7.91231657,none,0,Rufiji,Mlanda B,Iringa,11,1,Iringa Rural,Magulilwa,441,TRUE,GeoData Consultants Ltd,VWC,,TRUE,2000,swn 80,swn 80,handpump,vwc,user-group,pay monthly,monthly,soft,good,enough,enough,machine dbh,borehole,groundwater,hand pump,hand pump,functional
30537,0,9/5/2011,He,0,HE,31.55890304,-2.02646851,Kwa Ignas,0,Lake Victoria,Kasharunga,Kagera,18,3,Muleba,Kasharunga,0,TRUE,GeoData Consultants Ltd,,B,FALSE,0,gravity,gravity,gravity,vwc,user-group,never pay,never pay,soft,good,insufficient,insufficient,spring,spring,groundwater,communal standpipe,communal standpipe,non functional
27312,50,3/12/2011,Private Individual,159,WU,38.35356668,-6.63869562,Kessy,0,Wami / Ruvu,Magwila,Pwani,6,1,Bagamoyo,Chalinze,20,FALSE,GeoData Consultants Ltd,WUA,Chalinze wate,TRUE,2008,ksb,submersible,submersible,private operator,commercial,pay per bucket,per bucket,soft,good,enough,enough,river,river/lake,surface,communal standpipe,communal standpipe,non functional
22143,0,4/11/2011,Water,0,Commu,35.87817211,-5.89186837,Ofisini,0,Wami / Ruvu,Juhudi,Dodoma,1,5,Dodoma Urban,Chihanga,0,TRUE,GeoData Consultants Ltd,VWC,Gawa,FALSE,0,mono,mono,motorpump,vwc,user-group,pay per bucket,per bucket,soft,good,insufficient,insufficient,machine dbh,borehole,groundwater,communal standpipe multiple,communal standpipe,functional needs repair
43237,200,1/17/2013,Isf/tacare,1002,ISF and TACARE,29.67098869,-4.7268496,Muungano,0,Lake Tanganyika,Kilundo,Kigoma,16,3,Kigoma Rural,Mwamgongo,120,TRUE,GeoData Consultants Ltd,WUG,Chankele/Bubango water project,TRUE,2006,gravity,gravity,gravity,vwc,user-group,pay monthly,monthly,soft,good,enough,enough,river,river/lake,surface,communal standpipe,communal standpipe,functional needs repair
62591,0,1/20/2013,Jica,212,Kokeni,38.96294513,-10.47656619,Maringini,0,Ruvuma / Southern Coast,Mwena,Lindi,80,53,Ruangwa,Luchelegwa,280,TRUE,GeoData Consultants Ltd,VWC,,TRUE,2006,india mark iii,india mark iii,handpump,vwc,user-group,never pay,never pay,salty,salty,enough,enough,machine dbh,borehole,groundwater,hand pump,hand pump,non functional
39920,200,3/23/2011,Danida,18,DA,38.89040167,-6.55790327,Gedebu,0,Wami / Ruvu,Shule,Pwani,6,1,Bagamoyo,Kiromo,40,TRUE,GeoData Consultants Ltd,Company,Bagamoyo wate,TRUE,1987,ksb,submersible,submersible,vwc,user-group,pay monthly,monthly,soft,good,enough,enough,river,river/lake,surface,communal standpipe,communal standpipe,non functional
70892,0,2/18/2013,Adra,1560,Adra,35.51217404,-4.44803987,Gadiehindo,0,Internal,Mara B,Manyara,21,2,Hanang,Measkron,221,TRUE,GeoData Consultants Ltd,VWC,Kijiji,TRUE,2008,gravity,gravity,gravity,vwc,user-group,never pay,never pay,soft,good,insufficient,insufficient,spring,spring,groundwater,communal standpipe,communal standpipe,functional
48593,0,7/11/2011,Hesawa,0,DWE,31.45311103,-1.19438963,Kagashani,0,Lake Victoria,Mushasha,Kagera,18,7,Misenyi,Kyaka,0,TRUE,GeoData Consultants Ltd,VWC,,TRUE,0,nira/tanira,nira/tanira,handpump,vwc,user-group,never pay,never pay,milky,milky,insufficient,insufficient,shallow well,shallow well,groundwater,hand pump,hand pump,non functional
26419,250,1/27/2013,Danida,1471,DANIDA,30.21673046,-4.34106206,Kwa Kuviye,0,Lake Tanganyika,Kitobo,Kigoma,16,2,Kasulu,Nyamnyusi,950,TRUE,GeoData Consultants Ltd,Water authority,Donge,TRUE,2007,gravity,gravity,gravity,vwc,user-group,pay monthly,monthly,soft,good,enough,enough,dam,dam,surface,communal standpipe multiple,communal standpipe,functional
68554,500,2/11/2013,Government Of Tanzania,1274,Government,30.12668109,-4.23637808,Kwa Nyonyori,0,Lake Tanganyika,Kishiha,Kigoma,16,2,Kasulu,Muyama,1430,TRUE,GeoData Consultants Ltd,Water authority,,FALSE,1978,ksb,submersible,submersible,vwc,user-group,other,other,soft,good,enough,enough,machine dbh,borehole,groundwater,communal standpipe multiple,communal standpipe,non functional
29083,0,8/4/2011,Mzee Sh,0,ALLYS,33.0795039,-3.00965923,Kwa Shij,0,Lake Victoria,Misasi C,Mwanza,19,7,Missungwi,Misasi,0,FALSE,GeoData Consultants Ltd,Private operator,,TRUE,0,submersible,submersible,submersible,private operator,commercial,pay per bucket,per bucket,unknown,unknown,enough,enough,machine dbh,borehole,groundwater,communal standpipe multiple,communal standpipe,functional
33379,0,2/19/2013,Danida,1000,DWE,35.54217277,-10.80885305,Kwa Mathiasi,0,Ruvuma / Southern Coast,Msewo Mwaazi,Ruvuma,10,2,Songea Rural,Mpitimbi,0,TRUE,GeoData Consultants Ltd,VWC,Mradi wa maji wa mpitimbi,TRUE,1978,gravity,gravity,gravity,vwc,user-group,pay when scheme fails,on failure,soft,good,enough,enough,river,river/lake,surface,communal standpipe,communal standpipe,functional needs repair
43206,0,10/6/2012,Aict,0,AICT,33.23583842,-3.56601953,Kwa Daudi Mandusela,0,Internal,Madukani A,Shinyanga,17,3,Shinyanga Rural,Mwantini,0,FALSE,GeoData Consultants Ltd,VWC,Mwang'hosha Nyamalogo,FALSE,0,mono,mono,motorpump,vwc,user-group,never pay,never pay,soft,good,enough,enough,dam,dam,surface,communal standpipe multiple,communal standpipe,non functional
41743,0,8/4/2011,Government Of Tanzania,98,DWE,39.04298326,-4.99423737,Kwa Tate,0,Pangani,Kiruku Mchangamweupe,Tanga,4,4,Tanga,Mabokweni,110,TRUE,GeoData Consultants Ltd,VWC,Shallow well,TRUE,1962,other,other,other,vwc,user-group,never pay,never pay,soft,good,dry,dry,shallow well,shallow well,groundwater,other,other,non functional
17970,0,1/17/2013,Rwssp,1128,DWE,34.56343795,-4.09374985,Mashine,0,Internal,Mashine,Singida,13,1,Iramba,Ibaga,256,TRUE,GeoData Consultants Ltd,WUG,None,TRUE,2010,afridev,afridev,handpump,wug,user-group,never pay,never pay,soft,good,enough,enough,machine dbh,borehole,groundwater,hand pump,hand pump,functional
25693,0,2/5/2013,Tcrs,1352,Community,30.65026741,-3.55486258,Muhaza,0,Lake Tanganyika,Mlima Ndabaneze,Kigoma,16,1,Kibondo,Bunyambo,150,TRUE,GeoData Consultants Ltd,VWC,,FALSE,2002,gravity,gravity,gravity,vwc,user-group,unknown,unknown,soft,good,insufficient,insufficient,spring,spring,groundwater,improved spring,improved spring,functional
39364,50,2/13/2013,Kiuma,701,KIUMA,36.95075936,-11.31324316,Mdabwa Primary School,0,Ruvuma / Southern Coast,Nguvumali,Ruvuma,10,1,Tunduru,Marumba,1,TRUE,GeoData Consultants Ltd,VWC,Mbati Water Supply,FALSE,2011,submersible,submersible,submersible,vwc,user-group,pay per bucket,per bucket,soft,good,enough,enough,machine dbh,borehole,groundwater,communal standpipe multiple,communal standpipe,functional needs repair
57580,10,2/26/2013,Germany Republi,1409,CES,37.17489041,-3.21646394,Area Two Namba 20,0,Pangani,Tema,Kilimanjaro,3,5,Hai,Masama Mashariki,75,TRUE,GeoData Consultants Ltd,Water Board,Losaa-Kia water supply,TRUE,1999,gravity,gravity,gravity,water board,user-group,pay per bucket,per bucket,soft,good,enough,enough,spring,spring,groundwater,communal standpipe,communal standpipe,functional
23000,1000,2/16/2013,District Council,744,District Counci,37.61640658,-3.56996907,Kwa Issa Kinanja,0,Pangani,Kwa Nyange,Kilimanjaro,3,2,Mwanga,Jipe,320,TRUE,GeoData Consultants Ltd,VWC,Kwa Nyange water supply,TRUE,2010,gravity,gravity,gravity,vwc,user-group,pay monthly,monthly,soft,good,enough,enough,spring,spring,groundwater,communal standpipe,communal standpipe,functional
59902,0,2/17/2013,Netherlands,0,DWE,33.69790014,-3.26949691,Watumia Maji (Maji Ni Uhai),0,Internal,Malula,Shinyanga,17,2,Maswa,Isanga,0,TRUE,GeoData Consultants Ltd,WUG,,FALSE,0,nira/tanira,nira/tanira,handpump,wug,user-group,other,other,soft,good,enough,enough,shallow well,shallow well,groundwater,hand pump,hand pump,functional
60371,0,7/21/2011,Hesawa,0,HESAWA,31.7673009,-3.0251057,Maendeleo,0,Lake Victoria,Maendeleo,Kagera,18,8,Chato,Bwanga,0,TRUE,GeoData Consultants Ltd,VWC,,TRUE,0,swn 80,swn 80,handpump,vwc,user-group,other,other,soft,good,enough,enough,hand dtw,borehole,groundwater,hand pump,hand pump,non functional
74246,50,3/7/2011,Ruthe,1428,Ruthe,35.63048144,-7.71054858,none,0,Rufiji,Kidete,Iringa,11,1,Iringa Rural,Kiwere,1,TRUE,GeoData Consultants Ltd,VWC,Kiwele,TRUE,2000,gravity,gravity,gravity,vwc,user-group,pay per bucket,per bucket,soft,good,dry,dry,spring,spring,groundwater,communal standpipe,communal standpipe,non functional
7116,0,7/12/2011,,0,,33.80508085,-9.1306743,Kwa Mzee Kaiga,0,Lake Nyasa,Ipuguso,Mbeya,12,4,Rungwe,Lutebe,0,TRUE,GeoData Consultants Ltd,VWC,N,,0,other,other,other,vwc,user-group,never pay,never pay,soft,good,enough,enough,river,river/lake,surface,communal standpipe,communal standpipe,functional
64063,0,5/3/2013,Adra,1295,Adra/Community,36.90832887,-3.33074309,Lukumai,0,Pangani,Mseseweni,Arusha,2,7,Meru,Maji ya Chai,120,TRUE,GeoData Consultants Ltd,VWC,Maambreni gravity water supply,TRUE,2004,gravity,gravity,gravity,vwc,user-group,unknown,unknown,fluoride,fluoride,insufficient,insufficient,river,river/lake,surface,communal standpipe,communal standpipe,non functional
59983,0,7/3/2013,Government Of Tanzania,1207,Community,36.87553547,-3.3445666,Kumbuaeli,0,Pangani,Kiwawa,Arusha,2,7,Meru,Maji ya Chai,120,TRUE,GeoData Consultants Ltd,VWC,Tuvaila gravity water supply,TRUE,2005,gravity,gravity,gravity,wug,user-group,unknown,unknown,soft,good,enough,enough,river,river/lake,surface,communal standpipe multiple,communal standpipe,functional
10784,0,7/17/2011,Tulawaka Gold Mine,0,Tulawaka Gold Mine,31.48904738,-3.26790435,Imalanota,0,Lake Tanganyika,Nyansalala,Kagera,18,4,Biharamulo,Lusahunga,0,TRUE,GeoData Consultants Ltd,VWC,,TRUE,0,india mark ii,india mark ii,handpump,vwc,user-group,never pay,never pay,milky,milky,enough,enough,shallow well,shallow well,groundwater,hand pump,hand pump,functional
49503,0,4/7/2011,Danida,0,DANIDA,33.23267014,-9.26648533,Kwa Kenya,0,Lake Nyasa,Vimetu,Mbeya,12,2,Ileje,Ndola,0,FALSE,GeoData Consultants Ltd,VWC,,FALSE,0,gravity,gravity,gravity,wug,user-group,pay when scheme fails,on failure,soft,good,seasonal,seasonal,river,river/lake,surface,communal standpipe,communal standpipe,functional
54248,0,4/10/2011,Kkkt,0,KKT C,36.55702857,-6.37279744,Shuleni,0,Wami / Ruvu,Chang'Ombe,Dodoma,1,1,Mpwapwa,Kimagai,0,TRUE,GeoData Consultants Ltd,VWC,Bumi,TRUE,0,gravity,gravity,gravity,vwc,user-group,pay per bucket,per bucket,soft,good,enough,enough,spring,spring,groundwater,communal standpipe,communal standpipe,non functional
24409,0,7/17/2011,Hesawa,0,DWE,31.66327256,-1.08048548,Kwakabsmbo,0,Lake Victoria,Kalamila,Kagera,18,7,Misenyi,Kashenye,0,TRUE,GeoData Consultants Ltd,VWC,Kan,TRUE,0,gravity,gravity,gravity,vwc,user-group,pay when scheme fails,on failure,soft,good,insufficient,insufficient,spring,spring,groundwater,communal standpipe,communal standpipe,non functional
21068,0,3/7/2011,Nethalan,445,DWE,37.48747402,-6.82950072,Kwa Bit Omari,0,Wami / Ruvu,Mingo,Morogoro,5,6,Mvomero,Mzumbe,90,TRUE,GeoData Consultants Ltd,VWC,,TRUE,1997,nira/tanira,nira/tanira,handpump,vwc,user-group,never pay,never pay,soft,good,enough,enough,shallow well,shallow well,groundwater,hand pump,hand pump,functional
62341,0,1/22/2013,Hesawa,1191,DWE,33.35647131,-2.06349369,Shuleni,0,Lake Victoria,Kabarongo,Mara,20,4,Bunda,Igundu,804,FALSE,GeoData Consultants Ltd,Parastatal,,FALSE,2000,gravity,gravity,gravity,parastatal,parastatal,unknown,unknown,soft,good,dry,dry,rainwater harvesting,rainwater harvesting,surface,communal standpipe,communal standpipe,non functional
10837,0,10/29/2012,Hesawa,1339,Hesawa,34.44864527,-2.02266257,Tattabigo Shule Ya Msingi,0,Lake Victoria,Mwebebonda,Mara,20,2,Serengeti,Natta,600,FALSE,GeoData Consultants Ltd,Other,,,1997,gravity,gravity,gravity,other,other,never pay,never pay,soft,good,insufficient,insufficient,rainwater harvesting,rainwater harvesting,surface,communal standpipe,communal standpipe,functional
35458,50,2/26/2013,Tasaf,1348,Water board,37.02381013,-5.5923447,Nendebe,0,Pangani,Nendebe,Manyara,21,5,Kiteto,Lengatei,1,TRUE,GeoData Consultants Ltd,VWC,TASAF,TRUE,2004,submersible,submersible,submersible,vwc,user-group,pay per bucket,per bucket,salty,salty,insufficient,insufficient,machine dbh,borehole,groundwater,communal standpipe multiple,communal standpipe,non functional
36038,100,2/25/2011,Kkkt,2073,Commu,34.22303933,-9.3449213,none,0,Lake Nyasa,Ihela Shu,Iringa,11,3,Makete,Lupalilo,0,TRUE,GeoData Consultants Ltd,VWC,Ihela,FALSE,2000,gravity,gravity,gravity,vwc,user-group,pay monthly,monthly,soft,good,enough,enough,spring,spring,groundwater,communal standpipe,communal standpipe,non functional
64447,0,7/14/2011,Hesawa,0,LOCAL CONTRACT,31.57239755,-1.42926609,Kashunshu,0,Lake Victoria,Ikongora,Kagera,18,2,Bukoba Rural,Kaibanja,0,TRUE,GeoData Consultants Ltd,VWC,,TRUE,0,other,other,other,vwc,user-group,never pay,never pay,soft,good,enough,enough,shallow well,shallow well,groundwater,other,other,functional
22897,0,7/22/2011,Concern World Wide,0,DWE,31.4647567,-2.77016894,Mashineni,0,Lake Tanganyika,Majengo B,Kagera,18,4,Biharamulo,Runazi,0,TRUE,GeoData Consultants Ltd,VWC,Kabindi Water Supply,TRUE,0,gravity,gravity,gravity,vwc,user-group,never pay,never pay,soft,good,enough,enough,machine dbh,borehole,groundwater,communal standpipe,communal standpipe,non functional
2915,0,3/14/2013,Wfp,1302,WFP,36.77862138,-2.55618033,Shuleni,0,Internal,Ewerendeke,Arusha,2,6,Longido,Namanga,370,TRUE,GeoData Consultants Ltd,Parastatal,,,2012,gravity,gravity,gravity,parastatal,parastatal,other,other,soft,good,seasonal,seasonal,spring,spring,groundwater,communal standpipe,communal standpipe,functional
14016,0,4/7/2011,,0,,33.87310388,-9.29061569,Busekele,0,Lake Nyasa,Busekele,Mbeya,12,4,Rungwe,Itete,0,TRUE,GeoData Consultants Ltd,VWC,K,,0,gravity,gravity,gravity,vwc,user-group,never pay,never pay,soft,good,enough,enough,spring,spring,groundwater,communal standpipe,communal standpipe,functional
69525,0,10/11/2012,Dwe,0,DWE,32.071081,-5.06726885,Kitega Uchumi,0,Lake Tanganyika,Kitega Uchumi,Tabora,14,4,Urambo,Urambo,0,FALSE,GeoData Consultants Ltd,VWC,,TRUE,0,other,other,other,vwc,user-group,never pay,never pay,soft,good,dry,dry,machine dbh,borehole,groundwater,hand pump,hand pump,non functional
73061,50,2/14/2013,,1455,,34.71064345,-5.18676616,Aley Mak8Ta,0,Internal,Mosi,Singida,13,2,Singida Rural,Ikungu,50,TRUE,GeoData Consultants Ltd,VWC,M,,2000,mono,mono,motorpump,vwc,user-group,pay per bucket,per bucket,soft,good,insufficient,insufficient,machine dbh,borehole,groundwater,communal standpipe,communal standpipe,functional
42031,500,3/23/2011,Rc Church,2050,ACRA,34.64835709,-9.31731152,Kwa Charles Beda,0,Rufiji,Utengule,Iringa,11,4,Njombe,Imalinyi,305,TRUE,GeoData Consultants Ltd,WUA,Tove Mtwango gravity Scheme,TRUE,2008,gravity,gravity,gravity,wua,user-group,pay monthly,monthly,soft,good,enough,enough,spring,spring,groundwater,communal standpipe,communal standpipe,functional
33235,0,10/5/2012,Rwssp,0,DWE,32.95155946,-3.77939282,Nguvu Kazi B,0,Internal,Butondolo,Shinyanga,17,3,Kahama,Jana,0,TRUE,GeoData Consultants Ltd,,,TRUE,0,nira/tanira,nira/tanira,handpump,wug,user-group,unknown,unknown,soft,good,enough,enough,shallow well,shallow well,groundwater,hand pump,hand pump,non functional
41839,0,7/27/2011,Hesawa,0,HESAWA,32.99370088,-2.69044203,Kwa Nhag,0,Lake Victoria,Isera,Mwanza,19,7,Missungwi,Usagara,0,,GeoData Consultants Ltd,VWC,,TRUE,0,other,other,other,vwc,user-group,never pay,never pay,coloured,colored,dry,dry,shallow well,shallow well,groundwater,other,other,non functional
62002,0,7/19/2011,Hesawa,0,HESAWA,31.6012707,-2.93012242,Nyarutembo,0,Lake Tanganyika,Nyarutembo,Kagera,18,8,Chato,Buziku,0,TRUE,GeoData Consultants Ltd,VWC,,TRUE,0,nira/tanira,nira/tanira,handpump,vwc,user-group,never pay,never pay,soft,good,enough,enough,shallow well,shallow well,groundwater,hand pump,hand pump,functional
6106,20,3/16/2013,Government Of Tanzania,976,DWE,36.84150658,-3.49366766,Kwa Olaisi,0,Pangani,Msumbiji,Arusha,2,2,Arusha Rural,Nduruma,150,TRUE,GeoData Consultants Ltd,VWC,Machumba estate pipe line,TRUE,0,gravity,gravity,gravity,vwc,user-group,pay per bucket,per bucket,soft,good,insufficient,insufficient,spring,spring,groundwater,communal standpipe,communal standpipe,functional
25915,0,4/15/2011,,0,,33.86126585,-8.68481006,Kwa Amina Mwautenga,0,Rufiji,Wihanga,Mbeya,12,7,Mbarali,Utengule Usangu,0,TRUE,GeoData Consultants Ltd,WUA,,FALSE,0,gravity,gravity,gravity,wua,user-group,never pay,never pay,soft,good,seasonal,seasonal,river,river/lake,surface,communal standpipe,communal standpipe,functional
20673,0,10/23/2012,Rwssp,0,DWE,32.54432125,-4.07660522,Kwa Jacob Shimo,0,Lake Tanganyika,Igalula A,Shinyanga,17,3,Kahama,Ukune,0,TRUE,GeoData Consultants Ltd,,,TRUE,0,other,other,other,wug,user-group,unknown,unknown,milky,milky,insufficient,insufficient,shallow well,shallow well,groundwater,other,other,functional
59475,0,3/5/2011,Government Of Tanzania,1282,DWE,38.32726235,-4.4646702,Kwa Shembilu,0,Pangani,Mgwashi,Tanga,4,1,Lushoto,Mbaramo,1,TRUE,GeoData Consultants Ltd,VWC,Shagai streem,TRUE,2008,gravity,gravity,gravity,vwc,user-group,never pay,never pay,soft,good,enough,enough,spring,spring,groundwater,communal standpipe,communal standpipe,functional
24012,0,3/17/2011,District Council,2050,DWE,34.68859705,-9.69622598,none,0,Lake Nyasa,Ligelango,Iringa,11,5,Ludewa,Madope,50,TRUE,GeoData Consultants Ltd,VWC,Distri,FALSE,2007,gravity,gravity,gravity,vwc,user-group,pay when scheme fails,on failure,soft,good,enough,enough,spring,spring,groundwater,communal standpipe,communal standpipe,functional
69107,0,7/11/2011,Kkkt,0,KKKT,32.41352249,-9.09504292,Nakapoka,0,Lake Rukwa,Ipumpila,Mbeya,12,6,Mbozi,Ndalambo,0,TRUE,GeoData Consultants Ltd,VWC,,FALSE,0,nira/tanira,nira/tanira,handpump,vwc,user-group,never pay,never pay,soft,good,seasonal,seasonal,shallow well,shallow well,groundwater,hand pump,hand pump,non functional
64062,30,1/25/2013,Lips,11,LIPS,39.88898115,-10.13363156,Bondeni 1,0,Ruvuma / Southern Coast,Mkopwe,Lindi,18,2,Lindi Rural,Nachunyu,1,FALSE,GeoData Consultants Ltd,VWC,LIPS Borehole Scheme,FALSE,2006,nira/tanira,nira/tanira,handpump,vwc,user-group,pay per bucket,per bucket,soft,good,insufficient,insufficient,shallow well,shallow well,groundwater,hand pump,hand pump,non functional
44002,0,7/16/2011,Concern World Wide,0,DWE,31.19411613,-3.06136744,Centre,0,Lake Tanganyika,Nyakafundikwa A,Kagera,18,4,Biharamulo,Kalenge,0,TRUE,GeoData Consultants Ltd,VWC,,TRUE,0,nira/tanira,nira/tanira,handpump,vwc,user-group,never pay,never pay,soft,good,enough,enough,shallow well,shallow well,groundwater,hand pump,hand pump,functional
37471,0,7/22/2011,Tasaf,0,TASAF,31.64732214,-2.78450823,Sekondari,0,Lake Victoria,Wichamoyo,Kagera,18,4,Biharamulo,Nyamigogo,0,TRUE,GeoData Consultants Ltd,VWC,,TRUE,0,gravity,gravity,gravity,vwc,user-group,never pay,never pay,soft,good,enough,enough,rainwater harvesting,rainwater harvesting,surface,communal standpipe,communal standpipe,functional
49585,0,10/7/2011,Sida,0,Central government,33.86084491,-9.59608383,Kwa Mwabibi Mstafa,0,Lake Nyasa,Mikoroshini,Mbeya,12,3,Kyela,Kyela Urban,0,TRUE,GeoData Consultants Ltd,Water authority,Kanga water supplied scheme,TRUE,0,gravity,gravity,gravity,water authority,commercial,never pay,never pay,soft,good,dry,dry,river,river/lake,surface,communal standpipe,communal standpipe,non functional
60852,20,3/17/2011,World Bank,471,World,37.82346185,-6.7716987,Kwa Saidi Gwaja,0,Wami / Ruvu,Mbuyuni,Morogoro,5,2,Morogoro Rural,Mkambalani,150,TRUE,GeoData Consultants Ltd,VWC,Mkam,TRUE,2004,gravity,gravity,gravity,vwc,user-group,pay monthly,monthly,soft,good,enough,enough,river,river/lake,surface,communal standpipe,communal standpipe,functional
64130,0,10/23/2012,Tasaf,0,TASAF,32.78502522,-5.41803094,Kwa Ramadhani,0,Lake Tanganyika,Nyakahunga,Tabora,14,5,Sikonge,Igigwa,0,TRUE,GeoData Consultants Ltd,VWC,,TRUE,0,india mark ii,india mark ii,handpump,vwc,user-group,never pay,never pay,soft,good,dry,dry,shallow well,shallow well,groundwater,hand pump,hand pump,non functional
17687,0,8/3/2011,Government Of Tanzania,385,RWE,37.44310991,-6.29976667,Shuleni,0,Wami / Ruvu,Kipogoro,Morogoro,5,6,Mvomero,Mvomero,1,TRUE,GeoData Consultants Ltd,VWC,Vugiro,TRUE,1974,submersible,submersible,submersible,vwc,user-group,unknown,unknown,soft,good,insufficient,insufficient,machine dbh,borehole,groundwater,communal standpipe,communal standpipe,functional
38876,0,2/24/2011,Tanza,350,DWE,37.88687839,-6.86199999,Msikitini,0,Wami / Ruvu,Kikundi Kati,Morogoro,5,2,Morogoro Rural,Kiroka,1,TRUE,GeoData Consultants Ltd,VWC,Kiro,TRUE,1972,gravity,gravity,gravity,vwc,user-group,never pay,never pay,unknown,unknown,dry,dry,machine dbh,borehole,groundwater,communal standpipe,communal standpipe,non functional
28669,50,3/21/2013,0,12,0,39.1857105,-6.89259326,Chekanao,0,Wami / Ruvu,Mtaa Wa Kitunda Kati,Dar es Salaam,7,2,Ilala,Kitunda,150,,GeoData Consultants Ltd,Private operator,,FALSE,0,submersible,submersible,submersible,private operator,commercial,pay per bucket,per bucket,soft,good,enough,enough,machine dbh,borehole,groundwater,communal standpipe,communal standpipe,functional
73769,0,8/2/2011,Sw,0,SW,31.65326799,-1.59857903,Kashasha,0,Lake Victoria,Busiiko,Kagera,18,3,Muleba,Ruhanga,0,TRUE,GeoData Consultants Ltd,VWC,,TRUE,0,gravity,gravity,gravity,vwc,user-group,never pay,never pay,soft,good,enough,enough,spring,spring,groundwater,improved spring,improved spring,functional needs repair
66521,2000,2/3/2011,Shipo,1603,Shipo,34.98887131,-8.91132497,none,0,Rufiji,Usetule Kati,Iringa,11,4,Njombe,Mahongole,40,TRUE,GeoData Consultants Ltd,VWC,,FALSE,2010,other - rope pump,rope pump,rope pump,vwc,user-group,pay when scheme fails,on failure,soft,good,enough,enough,hand dtw,borehole,groundwater,hand pump,hand pump,functional
53167,0,1/24/2013,Fini Water,1,Fini water,39.6002343,-10.02772132,Kwa Timba,0,Ruvuma / Southern Coast,Mpakani,Lindi,80,62,Lindi Rural,Ng'apa,200,TRUE,GeoData Consultants Ltd,,,TRUE,1987,other,other,other,vwc,user-group,unknown,unknown,salty,salty,enough,enough,machine dbh,borehole,groundwater,other,other,non functional
24232,0,4/7/2011,,0,,34.35839958,-8.69424705,Kwa Mzee Yakobo Kimela,0,Rufiji,Mkanyageni,Mbeya,12,7,Mbarali,Rujewa,0,FALSE,GeoData Consultants Ltd,Water Board,,TRUE,0,gravity,gravity,gravity,water board,user-group,never pay,never pay,coloured,colored,seasonal,seasonal,river,river/lake,surface,communal standpipe,communal standpipe,functional
65788,0,10/21/2012,Kanisa,1589,Kanisa,34.45547821,-1.24644694,Keburuna,0,Lake Victoria,Buhemba,Mara,20,1,Tarime,Sirari,1600,TRUE,GeoData Consultants Ltd,,,TRUE,2008,other,other,other,vwc,user-group,unknown,unknown,soft,good,enough,enough,spring,spring,groundwater,improved spring,improved spring,functional
72981,0,4/16/2011,,0,,33.78421925,-8.77994557,Kwa Peter,0,Rufiji,Usafwa,Mbeya,12,7,Mbarali,Igurusi,0,TRUE,GeoData Consultants Ltd,WUA,,TRUE,0,gravity,gravity,gravity,wua,user-group,never pay,never pay,coloured,colored,seasonal,seasonal,river,river/lake,surface,communal standpipe,communal standpipe,functional
60983,0,3/16/2013,0,-15,0,39.52711433,-6.98874758,Msikitini,0,Wami / Ruvu,Madrasa,Dar es Salaam,7,3,Temeke,Kimbiji,50,TRUE,GeoData Consultants Ltd,VWC,,FALSE,1970,mono,mono,motorpump,vwc,user-group,never pay,never pay,salty,salty,dry,dry,machine dbh,borehole,groundwater,other,other,non functional
37768,0,2/22/2013,Hesawa,1481,HESAWA,34.56387749,-1.72068493,Madukani,0,Lake Victoria,Madukani,Mara,20,2,Serengeti,Kebanchabancha,400,,GeoData Consultants Ltd,Other,,TRUE,1996,swn 80,swn 80,handpump,wug,user-group,unknown,unknown,soft,good,enough,enough,shallow well,shallow well,groundwater,hand pump,hand pump,non functional
64880,0,2/3/2013,Oxfarm,1595,OXFARM,29.80857829,-4.46052001,Nyaruyoka,0,Lake Tanganyika,Ruhororo,Kigoma,16,2,Kasulu,Muhinda,590,TRUE,GeoData Consultants Ltd,Water authority,,FALSE,1996,other,other,other,vwc,user-group,never pay,never pay,soft,good,enough,enough,spring,spring,groundwater,other,other,functional
32871,400,2/24/2013,Tasaf,531,TASAF,37.41877342,-10.91557638,Ngatuni Primary School,0,Ruvuma / Southern Coast,Majengo B,Ruvuma,10,1,Tunduru,Muhuwesi,1,FALSE,GeoData Consultants Ltd,VWC,,FALSE,2009,other - swn 81,other handpump,handpump,vwc,user-group,pay monthly,monthly,soft,good,enough,enough,machine dbh,borehole,groundwater,hand pump,hand pump,non functional
45564,0,4/2/2011,Village Council,0,VILLAGE COUNCIL Orpha,33.54480544,-8.9288387,Anthony Daudi,0,Rufiji,Kijiweni,Mbeya,12,2,Mbeya Rural,Igale,0,TRUE,GeoData Consultants Ltd,VWC,,TRUE,0,gravity,gravity,gravity,wug,user-group,pay when scheme fails,on failure,soft,good,insufficient,insufficient,river,river/lake,surface,communal standpipe,communal standpipe,functional
23519,0,10/19/2012,World Vision,0,World vision,32.17244285,-3.64330972,Kwa Karoli B,0,Lake Tanganyika,Kwa Karoli,Shinyanga,17,5,Bukombe,Masumbwe,0,,GeoData Consultants Ltd,WUG,,TRUE,0,other,other,other,wug,user-group,unknown,unknown,soft,good,enough,enough,shallow well,shallow well,groundwater,other,other,functional needs repair
50173,0,10/20/2012,Netherlands,0,DWE,34.08915375,-3.12214007,Mageni,0,Lake Victoria,Shuleni,Shinyanga,17,2,Maswa,Ipililo,0,TRUE,GeoData Consultants Ltd,WUG,,FALSE,0,swn 80,swn 80,handpump,wug,user-group,other,other,soft,good,enough,enough,shallow well,shallow well,groundwater,hand pump,hand pump,functional
66843,0,1/30/2013,Government Of Tanzania,101,,39.55938321,-9.70159734,Kwa Mtotela,0,Ruvuma / Southern Coast,Nangumbu,Lindi,80,23,Lindi Rural,Mchinga,1,FALSE,GeoData Consultants Ltd,VWC,Government Borehole Scheme,FALSE,2010,nira/tanira,nira/tanira,handpump,vwc,user-group,never pay,never pay,soft,good,enough,enough,machine dbh,borehole,groundwater,hand pump,hand pump,functional
13815,1000,3/3/2011,Kkkt,1562,Villagers,34.94546531,-8.86866011,Kwa Robart Mchena,0,Rufiji,Mahongole A,Iringa,11,4,Njombe,Mahongole,250,TRUE,GeoData Consultants Ltd,VWC,,FALSE,2009,nira/tanira,nira/tanira,handpump,vwc,user-group,pay when scheme fails,on failure,soft,good,enough,enough,hand dtw,borehole,groundwater,hand pump,hand pump,functional
36591,0,8/17/2011,Rudep,1481,DWE,32.06591365,-8.68875072,Shule Ya Msingi Kavifuti,0,Lake Rukwa,Mianga,Rukwa,15,2,Sumbawanga Rural,Miangalua,450,TRUE,GeoData Consultants Ltd,VWC,,FALSE,1986,other,other,other,vwc,user-group,never pay,never pay,soft,good,enough,enough,machine dbh,borehole,groundwater,other,other,non functional
71845,500,3/28/2011,Unicef,1445,DWE,34.68050209,-8.84136926,Kwa Mzee Lupaya,0,Rufiji,Kati,Iringa,11,4,Njombe,Wanging'ombe,80,TRUE,GeoData Consultants Ltd,WUA,wanging'ombe supply scheme,TRUE,1978,gravity,gravity,gravity,wua,user-group,pay monthly,monthly,soft,good,enough,enough,river,river/lake,surface,communal standpipe multiple,communal standpipe,functional
42180,1200,1/21/2013,Government Of Tanzania,1242,DWE,30.26413388,-4.52564753,Kwa Mukanda,0,Lake Tanganyika,Kagembe B,Kigoma,16,2,Kasulu,Ruhita,560,TRUE,GeoData Consultants Ltd,Water authority,Maji ya kutega,TRUE,1977,gravity,gravity,gravity,water board,user-group,pay annually,annually,soft,good,enough,enough,river,river/lake,surface,communal standpipe,communal standpipe,functional
63632,0,7/23/2011,Hesawz,0,DWE,33.16358148,-2.54645921,Kwa Bujashi,0,Lake Victoria,Matela A,Mwanza,19,2,Magu,Nyanguge,0,TRUE,GeoData Consultants Ltd,VWC,,TRUE,0,afridev,afridev,handpump,vwc,user-group,never pay,never pay,salty,salty,enough,enough,machine dbh,borehole,groundwater,hand pump,hand pump,functional
55594,0,1/25/2013,Shanta,1231,Idara ya maji,35.0800974,-5.32212056,Bombani,0,Internal,Londoni,Singida,13,3,Manyoni,Makuru,2500,TRUE,GeoData Consultants Ltd,VWC,Londoni water supply,FALSE,2009,mono,mono,motorpump,vwc,user-group,unknown,unknown,soft,good,enough,enough,machine dbh,borehole,groundwater,communal standpipe,communal standpipe,functional
11787,0,10/23/2012,Fpct,0,FPCT,33.43789893,-4.42476057,Fpct,0,Internal,Hospital,Tabora,14,2,Igunga,Nkinga,0,TRUE,GeoData Consultants Ltd,Private operator,,FALSE,0,submersible,submersible,submersible,private operator,commercial,never pay,never pay,salty,salty,enough,enough,machine dbh,borehole,groundwater,other,other,functional
48528,0,2/6/2013,Government Of Tanzania,1076,DWE,30.90475149,-5.10070113,Kwa Mama Hidaya,0,Lake Tanganyika,Kagwila,Kigoma,16,3,Kigoma Rural,Mganza,1050,TRUE,GeoData Consultants Ltd,VWC,,TRUE,2010,other,other,other,vwc,user-group,unknown,unknown,soft,good,enough,enough,shallow well,shallow well,groundwater,other,other,non functional
72678,0,1/30/2013,Wvt,0,WVT,0,-2.00E-08,Wvt Tanzania,0,Lake Victoria,Ilula,Shinyanga,17,1,Bariadi,Chinamili,0,FALSE,GeoData Consultants Ltd,Parastatal,,FALSE,0,gravity,gravity,gravity,parastatal,parastatal,other,other,soft,good,seasonal,seasonal,rainwater harvesting,rainwater harvesting,surface,communal standpipe,communal standpipe,functional
50970,20,2/5/2013,Lga,262,LGA,39.08229758,-10.9753631,Kanjilu,0,Ruvuma / Southern Coast,Ng'Uni,Mtwara,90,33,Masasi,Sindano,36,TRUE,GeoData Consultants Ltd,VWC,,TRUE,2004,gravity,gravity,gravity,vwc,user-group,pay per bucket,per bucket,soft,good,seasonal,seasonal,spring,spring,groundwater,communal standpipe,communal standpipe,functional
37840,0,2/27/2013,Danida,935,DANIDA,35.98642477,-10.73055089,Kwa Chafuruga,0,Ruvuma / Southern Coast,Mwinuko,Ruvuma,10,5,Namtumbo,Mkongo,540,TRUE,GeoData Consultants Ltd,VWC,Njalamatata water gravity scheme,TRUE,1983,gravity,gravity,gravity,vwc,user-group,pay when scheme fails,on failure,soft,good,seasonal,seasonal,river,river/lake,surface,communal standpipe,communal standpipe,functional
44258,0,8/11/2011,Dwe,823,DWE,31.7799078,-7.80637606,Kwa Marki,0,Lake Rukwa,Ichese,Rukwa,15,2,Sumbawanga Rural,Mtowisa,300,TRUE,GeoData Consultants Ltd,VWC,Mtowisa water suply,TRUE,1972,gravity,gravity,gravity,vwc,user-group,never pay,never pay,soft,good,dry,dry,river,river/lake,surface,communal standpipe,communal standpipe,non functional
10715,40,3/9/2011,Private Individual,217,WU,38.33493265,-6.45446888,Maiko,0,Wami / Ruvu,Sekondari,Pwani,6,1,Bagamoyo,Lugoba,12,TRUE,GeoData Consultants Ltd,WUA,Chalinze wate,TRUE,2010,ksb,submersible,submersible,private operator,commercial,pay per bucket,per bucket,soft,good,enough,enough,river,river/lake,surface,communal standpipe,communal standpipe,functional
12120,500,3/18/2011,Dhv,253,RWE,36.70397575,-8.12006358,Kwazai,0,Rufiji,Katindiuka A,Morogoro,5,3,Kilombero,Ifakara,450,TRUE,GeoData Consultants Ltd,,,TRUE,1997,swn 80,swn 80,handpump,vwc,user-group,pay monthly,monthly,soft,good,insufficient,insufficient,shallow well,shallow well,groundwater,hand pump,hand pump,functional
67980,300,3/11/2011,Ir,665,Ir,36.70991445,-6.64260892,Mbigili,0,Wami / Ruvu,Mbigili,Morogoro,5,1,Kilosa,Kidete,632,TRUE,GeoData Consultants Ltd,VWC,,TRUE,1997,other,other,other,vwc,user-group,pay monthly,monthly,salty,salty,insufficient,insufficient,shallow well,shallow well,groundwater,other,other,non functional
41635,500,7/16/2011,Government Of Tanzania,1783,DWE,31.52365762,-8.17864388,Kwa Alfred Mwanandenje,0,Lake Tanganyika,Malangilisho,Rukwa,15,2,Sumbawanga Rural,Msanzi,50,TRUE,GeoData Consultants Ltd,VWC,Msanzi Water Supply Sc,TRUE,1972,gravity,gravity,gravity,vwc,user-group,pay when scheme fails,on failure,soft,good,enough,enough,river,river/lake,surface,communal standpipe,communal standpipe,functional
14884,0,3/7/2013,World Vision,961,World Vision,35.7005422,-3.81945703,Migungani,0,Internal,Migungani,Manyara,21,1,Babati,Magara,245,TRUE,GeoData Consultants Ltd,VWC,,TRUE,2012,nira/tanira,nira/tanira,handpump,vwc,user-group,never pay,never pay,fluoride,fluoride,enough,enough,shallow well,shallow well,groundwater,hand pump,hand pump,functional
56725,0,1/17/2013,Netherlands,0,DWE,0,-2.00E-08,Kikundi Cha Wakina Mama,0,Lake Victoria,Mahaha,Shinyanga,17,1,Bariadi,Bunamhala,0,,GeoData Consultants Ltd,WUG,,FALSE,0,other,other,other,wug,user-group,unknown,unknown,soft,good,enough,enough,shallow well,shallow well,groundwater,other,other,non functional
33037,0,8/14/2011,Kkkt,0,KKKT,33.20344175,-9.07440778,Sailos,0,Lake Rukwa,Nzovu,Mbeya,12,6,Mbozi,Iyula,0,FALSE,GeoData Consultants Ltd,VWC,,FALSE,0,nira/tanira,nira/tanira,handpump,vwc,user-group,pay when scheme fails,on failure,soft,good,seasonal,seasonal,shallow well,shallow well,groundwater,hand pump,hand pump,functional
22190,0,3/12/2011,Government Of Tanzania,183,DWE,38.76743559,-5.17227682,Kwegole,0,Pangani,Kwegole,Tanga,4,3,Muheza,Magila,600,TRUE,GeoData Consultants Ltd,VWC,Amani spring,FALSE,2008,gravity,gravity,gravity,vwc,user-group,never pay,never pay,soft,good,seasonal,seasonal,spring,spring,groundwater,communal standpipe multiple,communal standpipe,non functional
47459,1000,3/2/2011,Danida,1592,DANID,35.63419525,-7.85014451,none,0,Rufiji,Igavilo,Iringa,11,1,Iringa Rural,Mseke,1,TRUE,GeoData Consultants Ltd,VWC,Meseke,TRUE,1984,gravity,gravity,gravity,vwc,user-group,pay monthly,monthly,soft,good,enough,enough,spring,spring,groundwater,communal standpipe,communal standpipe,functional
68908,0,3/5/2011,,-21,,39.67094346,-7.90660636,Royal,0,Rufiji,Kigamboni,Pwani,60,60,Mafia,Kilindoni,32,TRUE,GeoData Consultants Ltd,VWC,,FALSE,0,submersible,submersible,submersible,vwc,user-group,never pay,never pay,soft,good,enough,enough,machine dbh,borehole,groundwater,communal standpipe,communal standpipe,functional
62670,0,9/3/2013,Oikos E.Afrika,1589,Community,36.8272342,-3.18469585,Abisalum Mose,0,Internal,Uzunguni,Arusha,2,7,Meru,Ngarenanyuki,120,TRUE,GeoData Consultants Ltd,VWC,Kisimiri gravity water supply,TRUE,2006,gravity,gravity,gravity,wug,user-group,unknown,unknown,soft,good,enough,enough,spring,spring,groundwater,communal standpipe multiple,communal standpipe,functional
60866,0,8/17/2011,Rudep,1485,DWE,32.06802448,-8.68938706,Kanisani,0,Lake Rukwa,Mianga,Rukwa,15,2,Sumbawanga Rural,Miangalua,59,TRUE,GeoData Consultants Ltd,VWC,,FALSE,1986,india mark ii,india mark ii,handpump,vwc,user-group,never pay,never pay,soft,good,enough,enough,machine dbh,borehole,groundwater,hand pump,hand pump,non functional
2136,0,2/22/2011,,-16,,39.8543204,-7.78306327,Mvivini,0,Rufiji,Jimbo Mjini,Pwani,60,63,Mafia,Kirongwe,230,TRUE,GeoData Consultants Ltd,VWC,,FALSE,0,nira/tanira,nira/tanira,handpump,vwc,user-group,never pay,never pay,salty,salty,enough,enough,shallow well,shallow well,groundwater,hand pump,hand pump,functional
33320,0,2/16/2011,Anglican Church,1823,Angli,35.76391894,-8.08918663,none,0,Rufiji,Itimbwi,Iringa,11,7,Kilolo,Ukumbi,1,TRUE,GeoData Consultants Ltd,VWC,,TRUE,2009,india mark ii,india mark ii,handpump,vwc,user-group,never pay,never pay,soft,good,enough,enough,machine dbh,borehole,groundwater,hand pump,hand pump,functional
58126,0,4/3/2011,Government Of Tanzania,0,Government,33.01476219,-8.43639754,Shuleni,0,Lake Rukwa,Majengo,Mbeya,12,1,Chunya,Mbangala,0,TRUE,GeoData Consultants Ltd,VWC,,TRUE,0,india mark ii,india mark ii,handpump,vwc,user-group,pay per bucket,per bucket,soft,good,enough,enough,shallow well,shallow well,groundwater,hand pump,hand pump,non functional
45604,0,7/9/2011,Peters,0,DWE,31.51225219,-1.13959123,Church,0,Lake Victoria,Nyakalembe,Kagera,18,7,Misenyi,Kassambya,0,TRUE,GeoData Consultants Ltd,VWC,,TRUE,0,swn 80,swn 80,handpump,vwc,user-group,never pay,never pay,soft,good,insufficient,insufficient,shallow well,shallow well,groundwater,hand pump,hand pump,functional
67428,0,4/12/2011,Danida,0,DANIDA,33.72402918,-8.93211477,Kwa Njale,0,Rufiji,Nyalwela,Mbeya,12,2,Mbeya Rural,Ilungu,0,FALSE,GeoData Consultants Ltd,VWC,,FALSE,0,gravity,gravity,gravity,wug,user-group,pay when scheme fails,on failure,soft,good,enough,enough,river,river/lake,surface,communal standpipe,communal standpipe,functional needs repair
52318,0,4/14/2011,,0,,33.85161987,-8.82993517,Kwa Silvesta,0,Rufiji,Kanisani,Mbeya,12,7,Mbarali,Igurusi,0,TRUE,GeoData Consultants Ltd,WUA,,TRUE,0,gravity,gravity,gravity,wua,user-group,pay monthly,monthly,soft,good,insufficient,insufficient,river,river/lake,surface,communal standpipe,communal standpipe,functional
33347,0,1/25/2013,,1660,,34.88475031,-4.89751605,Timothy,0,Internal,Siuyu,Singida,13,2,Singida Rural,Siuyu,1,,GeoData Consultants Ltd,VWC,S,,2010,submersible,submersible,submersible,vwc,user-group,unknown,unknown,unknown,unknown,unknown,unknown,machine dbh,borehole,groundwater,communal standpipe,communal standpipe,non functional
36684,0,3/10/2011,Kkkt,1705,KKKT,34.95840922,-8.51078169,none,0,Rufiji,J,Iringa,11,2,Mufindi,Nyololo,0,TRUE,GeoData Consultants Ltd,VWC,,TRUE,2000,nira/tanira,nira/tanira,handpump,vwc,user-group,never pay,never pay,soft,good,enough,enough,shallow well,shallow well,groundwater,hand pump,hand pump,functional
41034,1000,2/24/2011,Danida,1712,DWE,35.2725042,-8.19550192,none,0,Rufiji,I,Iringa,11,2,Mufindi,Isalavanu,0,TRUE,GeoData Consultants Ltd,VWC,,TRUE,0,swn 80,swn 80,handpump,vwc,user-group,pay annually,annually,soft,good,enough,enough,shallow well,shallow well,groundwater,hand pump,hand pump,functional
112,30,3/14/2011,Donor,128,WU,38.34276796,-6.60873088,Shabaan Jubwa,0,Wami / Ruvu,Chalinze Mzee A,Pwani,6,1,Bagamoyo,Chalinze,50,TRUE,GeoData Consultants Ltd,WUA,Chalinze wate,TRUE,2010,ksb,submersible,submersible,wua,user-group,pay per bucket,per bucket,soft,good,enough,enough,river,river/lake,surface,communal standpipe,communal standpipe,non functional
4807,25000,4/14/2011,Secondary Schoo,1768,secondary school,34.71600987,-9.12973959,Head Master,0,Rufiji,Sadani,Iringa,11,4,Njombe,Mdandu,25,TRUE,GeoData Consultants Ltd,WUA,wanging'ombe water supply s,TRUE,1987,gravity,gravity,gravity,wua,user-group,pay monthly,monthly,soft,good,enough,enough,river,river/lake,surface,communal standpipe,communal standpipe,functional
41845,50,2/22/2013,Amref,232,Amref,39.77883219,-10.60671713,Shuleni,0,Ruvuma / Southern Coast,Mjini,Mtwara,99,1,Mtwara Rural,Njengwa,150,TRUE,GeoData Consultants Ltd,VWC,Hinju water supply,TRUE,2011,mono,mono,motorpump,vwc,user-group,pay per bucket,per bucket,soft,good,enough,enough,machine dbh,borehole,groundwater,communal standpipe multiple,communal standpipe,functional
6065,1500,3/25/2013,Government Of Tanzania,1567,Government,37.89233459,-4.36699297,Kwa Lukwazi,0,Pangani,Tariso,Kilimanjaro,3,3,Same,Suji,500,TRUE,GeoData Consultants Ltd,Water authority,Hempanga water supply,TRUE,1978,gravity,gravity,gravity,vwc,user-group,pay annually,annually,soft,good,insufficient,insufficient,spring,spring,groundwater,communal standpipe,communal standpipe,functional
37187,0,2/28/2013,Government Of Tanzania,1607,District council,37.59718978,-3.08465534,Kncu,0,Pangani,Kitakura,Kilimanjaro,3,1,Rombo,Kitirima Kingachi,1,TRUE,GeoData Consultants Ltd,Company,EKTM 3 water supply,TRUE,1962,gravity,gravity,gravity,company,commercial,pay monthly,monthly,soft,good,insufficient,insufficient,spring,spring,groundwater,communal standpipe,communal standpipe,non functional
26540,50,1/18/2013,Ministry Of Water,1135,DWE,33.50998861,-2.15235319,Shuleni,0,Lake Victoria,Stooni,Mara,20,4,Bunda,Neruma,100,TRUE,GeoData Consultants Ltd,VWC,Kasahunga pipe scheme,TRUE,1978,gravity,gravity,gravity,parastatal,parastatal,pay per bucket,per bucket,soft,good,enough,enough,lake,river/lake,surface,communal standpipe,communal standpipe,non functional
8879,0,10/10/2012,Adb,0,DWE,33.78466711,-3.72624692,Shule,0,Internal,Bulilwa,Shinyanga,17,8,Kishapu,Mwamashele,0,FALSE,GeoData Consultants Ltd,Parastatal,,FALSE,0,gravity,gravity,gravity,parastatal,parastatal,unknown,unknown,soft,good,seasonal,seasonal,rainwater harvesting,rainwater harvesting,surface,communal standpipe,communal standpipe,functional needs repair
30377,0,8/1/2011,Government Of Tanzania,0,Central government,30.75176889,-2.54922891,Masumbuko,0,Lake Victoria,Nyamahawa,Kagera,18,30,Ngara,Nyakisasa,0,TRUE,GeoData Consultants Ltd,VWC,Kashanda spring source,FALSE,0,gravity,gravity,gravity,vwc,user-group,never pay,never pay,soft,good,enough,enough,spring,spring,groundwater,communal standpipe multiple,communal standpipe,functional
20203,0,2/27/2013,,1539,,34.89458362,-4.49407781,Ramadhan,0,Internal,Azimio,Singida,13,2,Singida Rural,Mudida,1,TRUE,GeoData Consultants Ltd,VWC,,,1990,other,other,other,vwc,user-group,unknown,unknown,unknown,unknown,dry,dry,shallow well,shallow well,groundwater,other,other,non functional
8060,500,2/22/2011,Shipo,1768,SHIPO,34.89930829,-9.20451104,Kwa Bonifasi Pascal,0,Rufiji,Mahalule,Iringa,11,4,Njombe,Ikuka,40,TRUE,GeoData Consultants Ltd,VWC,,FALSE,2010,other - rope pump,rope pump,rope pump,vwc,user-group,pay monthly,monthly,soft,good,enough,enough,hand dtw,borehole,groundwater,hand pump,hand pump,functional
59630,500,7/3/2011,Kkkt,1593,Villagers,34.9203231,-8.83707693,Kwa Onesmo Ndumbula,0,Rufiji,Manzese,Iringa,11,4,Njombe,Mahongole,40,TRUE,GeoData Consultants Ltd,VWC,,FALSE,2009,nira/tanira,nira/tanira,handpump,vwc,user-group,pay when scheme fails,on failure,soft,good,enough,enough,hand dtw,borehole,groundwater,hand pump,hand pump,functional
10068,0,7/27/2011,Jbg,0,JBG,30.49985221,-2.5554993,Kikoko,0,Lake Victoria,Mumigezi,Kagera,18,30,Ngara,Mugoma,0,TRUE,GeoData Consultants Ltd,VWC,,FALSE,0,gravity,gravity,gravity,vwc,user-group,never pay,never pay,coloured,colored,insufficient,insufficient,spring,spring,groundwater,other,other,functional needs repair
34609,0,8/5/2011,,0,,31.77582328,-1.33162743,Kigesho,0,Lake Victoria,Bulibata,Kagera,18,6,Bukoba Urban,Nyanga,0,TRUE,GeoData Consultants Ltd,VWC,,FALSE,0,gravity,gravity,gravity,vwc,user-group,never pay,never pay,unknown,unknown,dry,dry,spring,spring,groundwater,improved spring,improved spring,non functional
26701,0,7/20/2011,Dadis,0,DADIS,32.85025146,-9.01509636,Fredy Mwasianga,0,Lake Rukwa,Msia Kati,Mbeya,12,6,Mbozi,Msia,0,TRUE,GeoData Consultants Ltd,VWC,,FALSE,0,gravity,gravity,gravity,vwc,user-group,pay when scheme fails,on failure,soft,good,enough,enough,spring,spring,groundwater,other,other,functional
46897,0,3/13/2013,International Aid Services,1315,International Aid Services,36.78231907,-3.36937009,Chuo Cha Ualimu Patendi,0,Pangani,Patandi,Arusha,2,7,Meru,Akheri,400,TRUE,GeoData Consultants Ltd,WUA,,FALSE,2012,gravity,gravity,gravity,wug,user-group,unknown,unknown,soft,good,insufficient,insufficient,rainwater harvesting,rainwater harvesting,surface,communal standpipe,communal standpipe,functional
34636,10,3/15/2011,Government Of Tanzania,205,RW,38.23544422,-6.63641192,Kiwembe,0,Wami / Ruvu,Kudibona,Pwani,6,1,Bagamoyo,Chalinze,100,TRUE,GeoData Consultants Ltd,VWC,Matuli/Mdaula,TRUE,1982,ksb,submersible,submersible,vwc,user-group,pay per bucket,per bucket,soft,good,enough,enough,dam,dam,surface,communal standpipe,communal standpipe,non functional
52520,10,3/18/2013,Germany,1685,Dmdd,35.88015611,-3.25083059,Kwa Gabriel,0,Internal,Qanqali,Arusha,24,30,Karatu,Mbulumbulu,200,TRUE,GeoData Consultants Ltd,VWC,Vyama vya watumia maji,TRUE,2009,gravity,gravity,gravity,vwc,user-group,pay per bucket,per bucket,soft,good,enough,enough,river,river/lake,surface,communal standpipe,communal standpipe,functional
75,0,1/4/2011,Unicef,1397,DWE,34.5688417,-8.91716508,Kwa Sihehwa,0,Rufiji,Sosola,Iringa,11,4,Njombe,Ilembula,20,TRUE,GeoData Consultants Ltd,WUA,wanging'ombe supply scheme,TRUE,1978,gravity,gravity,gravity,wua,user-group,pay when scheme fails,on failure,soft,good,dry,dry,river,river/lake,surface,other,other,non functional
31626,0,7/18/2011,Danida,0,Central government,33.82643865,-9.52747959,Kwa Gwakisa Mwantupe,0,Lake Nyasa,Majengo,Mbeya,12,3,Kyela,Mwaya,0,TRUE,GeoData Consultants Ltd,VWC,Sinyanga water supplied sch,TRUE,0,gravity,gravity,gravity,vwc,user-group,never pay,never pay,soft,good,dry,dry,spring,spring,groundwater,communal standpipe,communal standpipe,non functional
3181,0,1/20/2013,Tcrs,1232,TCRS,30.35823687,-5.56948805,Plot 40,0,Lake Tanganyika,Barabara 5,Rukwa,15,1,Mpanda,Mishamo,100,TRUE,GeoData Consultants Ltd,Water authority,,TRUE,1985,other,other,other,water authority,commercial,never pay,never pay,soft,good,enough,enough,machine dbh,borehole,groundwater,hand pump,hand pump,non functional
43098,0,4/4/2011,,0,,33.24244114,-9.31914172,Kwa Daison,0,Lake Nyasa,Isanga,Mbeya,12,5,Ileje,Ndola,0,TRUE,GeoData Consultants Ltd,VWC,,FALSE,0,gravity,gravity,gravity,vwc,user-group,unknown,unknown,unknown,unknown,dry,dry,river,river/lake,surface,communal standpipe,communal standpipe,non functional
37008,1000,3/3/2013,Isf,1055,ISF,37.82287905,-4.14888473,Nasuro Primary,0,Pangani,Nasuro B,Kilimanjaro,3,3,Same,Mwembe,450,TRUE,GeoData Consultants Ltd,Water authority,,TRUE,2011,gravity,gravity,gravity,water board,user-group,pay monthly,monthly,soft,good,insufficient,insufficient,spring,spring,groundwater,communal standpipe,communal standpipe,functional needs repair
34853,0,11/7/2011,Danida,0,Central government,33.93868915,-9.61165417,Kwa Roman Mwampulile,0,Lake Nyasa,Bagamoyo,Mbeya,12,3,Kyela,Bujonde,0,TRUE,GeoData Consultants Ltd,VWC,Ngana water supplied scheme,TRUE,0,gravity,gravity,gravity,vwc,user-group,never pay,never pay,soft,good,dry,dry,spring,spring,groundwater,communal standpipe,communal standpipe,non functional
48752,0,4/4/2013,Government Of Tanzania,744,Government,37.35509612,-3.40154092,Msikitini,0,Pangani,Kijijini,Kilimanjaro,3,4,Moshi Rural,Mabogini,1,TRUE,GeoData Consultants Ltd,Water authority,Coffee curing-Kahe pipeline,TRUE,1976,gravity,gravity,gravity,water authority,commercial,pay monthly,monthly,soft,good,insufficient,insufficient,spring,spring,groundwater,communal standpipe,communal standpipe,functional needs repair
31132,0,10/16/2012,Dwsp,0,DWSP,33.10016187,-3.81255032,Kwa Ntieja Kulwa,0,Lake Victoria,Zobogo,Shinyanga,17,3,Shinyanga Rural,Itwangi,0,TRUE,GeoData Consultants Ltd,WUG,,TRUE,0,nira/tanira,nira/tanira,handpump,wug,user-group,never pay,never pay,soft,good,seasonal,seasonal,shallow well,shallow well,groundwater,hand pump,hand pump,functional
37562,500,3/23/2013,Government Of Tanzania,1897,DWE,36.65057433,-3.2526794,Kwa Lazaro,0,Pangani,Olama,Arusha,2,2,Arusha Rural,Olkokola,150,TRUE,GeoData Consultants Ltd,VWC,Olkokola pipe line,TRUE,2000,gravity,gravity,gravity,vwc,user-group,pay when scheme fails,on failure,soft,good,enough,enough,spring,spring,groundwater,communal standpipe,communal standpipe,functional
28740,0,4/10/2011,Kkkt,0,KKKT,33.10623082,-9.03216574,Steven Filiward,0,Lake Rukwa,Shuleni,Mbeya,12,6,Mbozi,Ruanda,0,TRUE,GeoData Consultants Ltd,VWC,,FALSE,0,nira/tanira,nira/tanira,handpump,vwc,user-group,pay when scheme fails,on failure,soft,good,enough,enough,shallow well,shallow well,groundwater,hand pump,hand pump,functional needs repair
30257,0,1/15/2013,,1620,,34.96353666,-4.67802251,Merya Dispensery,0,Internal,Kawawa,Singida,13,2,Singida Rural,Merya,30,TRUE,GeoData Consultants Ltd,VWC,,,2010,other,other,other,vwc,user-group,never pay,never pay,soft,good,insufficient,insufficient,rainwater harvesting,rainwater harvesting,surface,communal standpipe,communal standpipe,functional
53212,0,3/21/2013,Government Of Tanzania,1661,Government,37.95878138,-4.43495404,Kwa Laurent,0,Pangani,Ngujini,Kilimanjaro,3,3,Same,Kirangare,140,TRUE,GeoData Consultants Ltd,Water authority,Kilotweni water supply,TRUE,2002,gravity,gravity,gravity,vwc,user-group,never pay,never pay,soft,good,insufficient,insufficient,spring,spring,groundwater,communal standpipe,communal standpipe,functional needs repair
40729,0,4/3/2013,Adra,1297,Adra /Community,36.97044487,-3.34985393,Julius,0,Pangani,Ulkusare,Arusha,2,7,Meru,Kikatiti,90,TRUE,GeoData Consultants Ltd,VWC,Maambreni gravity water supply,TRUE,2002,gravity,gravity,gravity,vwc,user-group,unknown,unknown,soft,good,insufficient,insufficient,river,river/lake,surface,communal standpipe,communal standpipe,non functional
48695,750,2/8/2013,Rc Church,1071,RC Church,29.88356158,-4.59970578,Mulumba Secondary,0,Lake Tanganyika,Kumsenga,Kigoma,16,2,Kasulu,Munzenze,570,TRUE,GeoData Consultants Ltd,Water authority,Kabali,TRUE,2005,gravity,gravity,gravity,private operator,commercial,pay monthly,monthly,soft,good,insufficient,insufficient,river,river/lake,surface,communal standpipe,communal standpipe,functional
35140,0,3/21/2011,Kibaha Town Council,120,DWE,38.93735313,-6.70497547,Street Land,0,Wami / Ruvu,Kidenge,Pwani,6,2,Kibaha,Kibaha,1,TRUE,GeoData Consultants Ltd,VWC,,TRUE,1988,mono,mono,motorpump,vwc,user-group,never pay,never pay,soft,good,insufficient,insufficient,river,river/lake,surface,communal standpipe,communal standpipe,non functional
46814,0,1/22/2013,Dsdp,1201,DWE,33.35805782,-2.07269915,Shuleni,0,Lake Victoria,Kabarongo,Mara,20,4,Bunda,Igundu,1,FALSE,GeoData Consultants Ltd,Parastatal,,FALSE,2009,gravity,gravity,gravity,parastatal,parastatal,unknown,unknown,soft,good,seasonal,seasonal,rainwater harvesting,rainwater harvesting,surface,communal standpipe,communal standpipe,functional
7721,0,4/5/2011,Ir,966,Ir,37.08879175,-6.01081035,Sungura A,0,Wami / Ruvu,Mtakuja,Morogoro,5,1,Kilosa,Chakwale,700,TRUE,GeoData Consultants Ltd,VWC,,TRUE,1996,swn 80,swn 80,handpump,vwc,user-group,never pay,never pay,soft,good,enough,enough,shallow well,shallow well,groundwater,hand pump,hand pump,functional
63695,0,1/16/2013,Dfid,1481,WATER AID,34.64498869,-4.74212404,Kwa Ismail Mnyankwe,0,Internal,Mughanga,Singida,13,4,Singida Urban,Mandewa,111,,GeoData Consultants Ltd,,,TRUE,2005,afridev,afridev,handpump,unknown,unknown,unknown,unknown,unknown,unknown,enough,enough,machine dbh,borehole,groundwater,hand pump,hand pump,functional
7171,0,10/15/2012,Rural Water Supply And Sanitat,0,DWE,32.16614798,-3.64794666,Zahanati,0,Lake Tanganyika,Ishilanga,Shinyanga,17,5,Bukombe,Masumbwe,0,TRUE,GeoData Consultants Ltd,Parastatal,,TRUE,0,nira/tanira,nira/tanira,handpump,parastatal,parastatal,unknown,unknown,soft,good,seasonal,seasonal,rainwater harvesting,rainwater harvesting,surface,hand pump,hand pump,functional
58838,0,8/7/2011,Jica,0,JICA,32.91684591,-2.84922488,Kwa Kulw,0,Lake Victoria,Nyambazu,Mwanza,19,7,Missungwi,Mbarika,0,,GeoData Consultants Ltd,VWC,,TRUE,0,afridev,afridev,handpump,vwc,user-group,never pay,never pay,soft,good,enough,enough,machine dbh,borehole,groundwater,hand pump,hand pump,functional
61046,20,4/2/2011,World Vision,0,World Vision,38.4687019,-5.13246175,Njia Ya Ng'Ombe,0,Pangani,Makwei Mvuleni,Tanga,4,2,Korogwe,Msambiazi,120,TRUE,GeoData Consultants Ltd,VWC,,TRUE,1999,nira/tanira,nira/tanira,handpump,vwc,user-group,pay per bucket,per bucket,soft,good,insufficient,insufficient,shallow well,shallow well,groundwater,hand pump,hand pump,functional
68347,0,7/27/2011,Government Of Tanzania,1281,RWE,33.00023911,-2.07363796,none,0,Lake Victoria,Songambele,Mwanza,19,1,Ukerewe,Mukituntu,350,TRUE,GeoData Consultants Ltd,VWC,Kazilankanda Water Supply,TRUE,1982,other,other,other,vwc,user-group,never pay,never pay,soft,good,insufficient,insufficient,lake,river/lake,surface,communal standpipe multiple,communal standpipe,non functional
14746,0,1/16/2013,,1641,,34.98778437,-4.64321463,Kibaoni,0,Internal,Ccm,Singida,13,2,Singida Rural,Maghojea,1,TRUE,GeoData Consultants Ltd,VWC,M,,2000,submersible,submersible,submersible,vwc,user-group,unknown,unknown,unknown,unknown,dry,dry,machine dbh,borehole,groundwater,communal standpipe,communal standpipe,functional needs repair
14952,10,1/20/2013,Ministry Of Water,508,LGA,39.33063258,-10.99280378,Sokoni,0,Ruvuma / Southern Coast,Sokoni,Mtwara,90,33,Newala,Nanguruwe,630,TRUE,GeoData Consultants Ltd,VWC,MWS,FALSE,2006,gravity,gravity,gravity,vwc,user-group,pay per bucket,per bucket,soft,good,insufficient,insufficient,spring,spring,groundwater,communal standpipe,communal standpipe,non functional
64334,0,2/19/2013,Adra,1556,Adra,35.53081946,-4.50268446,Giboya,0,Internal,Olobeshi,Manyara,21,2,Hanang,Hidet,270,TRUE,GeoData Consultants Ltd,VWC,Kijiji,TRUE,2008,gravity,gravity,gravity,vwc,user-group,never pay,never pay,soft,good,dry,dry,spring,spring,groundwater,communal standpipe,communal standpipe,non functional
72374,0,3/28/2011,Danida,0,DANIDA,33.333789,-8.95920754,Mahenge,0,Lake Rukwa,Isanga,Mbeya,12,2,Mbeya Rural,Iwindi,0,TRUE,GeoData Consultants Ltd,VWC,,TRUE,0,gravity,gravity,gravity,wug,user-group,pay when scheme fails,on failure,soft,good,dry,dry,river,river/lake,surface,communal standpipe,communal standpipe,non functional
33169,0,2/14/2013,World Vision,0,World Vision,33.2773436,-4.20136566,Kachibijo A,0,Internal,Kachibijo,Tabora,14,1,Nzega,Miguwa,0,TRUE,GeoData Consultants Ltd,VWC,,FALSE,0,other,other,other,vwc,user-group,pay when scheme fails,on failure,soft,good,seasonal,seasonal,shallow well,shallow well,groundwater,other,other,non functional
4907,500,2/27/2011,World Bank,373,Gwasco L,37.50789059,-6.26635194,Kwa Makumba,0,Wami / Ruvu,Zahanati,Morogoro,5,6,Mvomero,Hembeti,1,TRUE,GeoData Consultants Ltd,VWC,Dimamba,TRUE,2005,gravity,gravity,gravity,vwc,user-group,pay monthly,monthly,soft,good,enough,enough,river,river/lake,surface,communal standpipe,communal standpipe,functional needs repair
49994,0,4/14/2011,Government Of Tanzania,0,Government,33.0591187,-8.5683947,Dume La Nyani,0,Lake Rukwa,Kanga A,Mbeya,12,1,Chunya,Kanga,0,TRUE,GeoData Consultants Ltd,VWC,,TRUE,0,gravity,gravity,gravity,vwc,user-group,pay monthly,monthly,soft,good,enough,enough,spring,spring,groundwater,communal standpipe,communal standpipe,functional needs repair
59588,0,8/8/2011,Government Of Tanzania,102,Government,38.9738897,-5.12551864,Msikitini,0,Pangani,Pongwe Kati,Tanga,4,4,Tanga,Pongwe,100,TRUE,GeoData Consultants Ltd,VWC,Shallow well,TRUE,0,nira/tanira,nira/tanira,handpump,vwc,user-group,never pay,never pay,soft,good,enough,enough,shallow well,shallow well,groundwater,hand pump,hand pump,non functional
46893,50,3/30/2011,Af,1261,AF,36.83283068,-6.09538776,Kwa Kalebi,0,Wami / Ruvu,Ofsini,Morogoro,5,1,Kilosa,Rubeho,250,TRUE,GeoData Consultants Ltd,VWC,Ma,TRUE,2006,submersible,submersible,submersible,vwc,user-group,pay per bucket,per bucket,soft,good,enough,enough,machine dbh,borehole,groundwater,communal standpipe,communal standpipe,non functional
16944,0,7/11/2011,Hesawa,0,HESAWA,31.73311371,-2.47636967,Kwa Masunga,0,Lake Victoria,Kibehe A,Kagera,18,8,Chato,Kigongo,0,TRUE,GeoData Consultants Ltd,VWC,,TRUE,0,other,other,other,vwc,user-group,pay per bucket,per bucket,soft,good,insufficient,insufficient,shallow well,shallow well,groundwater,other,other,non functional
35828,0,3/30/2011,Water,0,Commu,35.62759083,-6.03113722,Kwa Richard,0,Internal,Abdujumbe,Dodoma,1,5,Dodoma Urban,Mbalawala,0,TRUE,GeoData Consultants Ltd,VWC,Luga,FALSE,0,mono,mono,motorpump,private operator,commercial,pay per bucket,per bucket,soft,good,dry,dry,machine dbh,borehole,groundwater,communal standpipe,communal standpipe,non functional
24377,0,3/2/2011,Mkinga Distric Coun,0,DWE,39.09126059,-4.9549518,Mtimbwani Secondary,0,Pangani,Mtimbwani A,Tanga,4,8,Mkinga,Mtimbwani,200,TRUE,GeoData Consultants Ltd,VWC,Borehole,TRUE,2009,afridev,afridev,handpump,vwc,user-group,unknown,unknown,soft,good,seasonal,seasonal,shallow well,shallow well,groundwater,hand pump,hand pump,non functional
51694,2000,3/9/2011,Danida,1007,DANID,35.06153079,-7.91507677,none,0,Rufiji,Uyamba,Iringa,11,1,Iringa Rural,Mahuninga,1,TRUE,GeoData Consultants Ltd,VWC,Mahuni,TRUE,1989,gravity,gravity,gravity,vwc,user-group,pay annually,annually,soft,good,enough,enough,spring,spring,groundwater,communal standpipe,communal standpipe,functional
70241,0,8/4/2011,,0,,31.80083428,-1.31490138,Shule Ya Msingi Ihungo,0,Lake Victoria,Ntungamo,Kagera,18,6,Bukoba Urban,Bukembe,0,TRUE,GeoData Consultants Ltd,VWC,,FALSE,0,gravity,gravity,gravity,vwc,user-group,never pay,never pay,soft,good,insufficient,insufficient,rainwater harvesting,rainwater harvesting,surface,communal standpipe,communal standpipe,non functional
1780,2000,3/15/2011,Danida,1114,DANID,35.87761667,-7.42197042,none,0,Rufiji,Madibila,Iringa,11,1,Iringa Rural,Kihorogota,1,TRUE,GeoData Consultants Ltd,VWC,Jihoro,TRUE,1991,gravity,gravity,gravity,vwc,user-group,pay annually,annually,soft,good,enough,enough,spring,spring,groundwater,communal standpipe,communal standpipe,functional
39490,0,3/19/2011,Government Of Tanzania,165,DWE,38.70152604,-5.13617489,Madago,0,Pangani,Madago,Tanga,4,3,Muheza,Nkumba,1000,TRUE,GeoData Consultants Ltd,VWC,Ufinga river,FALSE,2004,gravity,gravity,gravity,vwc,user-group,never pay,never pay,soft,good,insufficient,insufficient,spring,spring,groundwater,communal standpipe multiple,communal standpipe,functional
21704,6,6/3/2013,Ces(gmbh),1421,DWE,37.43964118,-3.31993627,Kwa Alphonce Kesi,0,Pangani,Lole,Kilimanjaro,3,4,Moshi Rural,Kirua Vunjo Magharibi,30,TRUE,GeoData Consultants Ltd,Water Board,Kirua kahe gravity water supply trust,TRUE,2008,gravity,gravity,gravity,water board,user-group,pay per bucket,per bucket,soft,good,enough,enough,spring,spring,groundwater,communal standpipe,communal standpipe,functional
35193,0,3/16/2011,Amref,-19,AMREF,39.24417821,-7.36829284,Kwa,0,Rufiji,Kimogola,Pwani,6,4,Mkuranga,Magawa,500,TRUE,GeoData Consultants Ltd,VWC,,FALSE,2007,swn 80,swn 80,handpump,vwc,user-group,never pay,never pay,soft,good,dry,dry,shallow well,shallow well,groundwater,hand pump,hand pump,non functional
24948,500,3/27/2011,Wananchi,1244,wananchi,34.63225535,-8.72031632,Ofisini,0,Rufiji,Kati,Iringa,11,4,Njombe,Wanging'ombe,55,TRUE,GeoData Consultants Ltd,WUA,wanging'ombe supply scheme,TRUE,2009,gravity,gravity,gravity,wua,user-group,pay monthly,monthly,soft,good,seasonal,seasonal,river,river/lake,surface,communal standpipe,communal standpipe,functional
6076,100,1/22/2013,Fw,357,FW,38.79470824,-10.57239234,Kidunchu,0,Ruvuma / Southern Coast,Kilimanihewa,Mtwara,90,33,Masasi,Lukulendi,1700,TRUE,GeoData Consultants Ltd,VWC,FW,TRUE,1975,mono,mono,motorpump,vwc,user-group,pay per bucket,per bucket,salty,salty,enough,enough,machine dbh,borehole,groundwater,communal standpipe multiple,communal standpipe,functional
18451,0,3/29/2013,Government Of Tanzania,1612,Central Government,37.5816604,-3.2649629,Kwa Mahanga,0,Pangani,Maring'A Juu,Kilimanjaro,3,4,Moshi Rural,Mwika Kusini,1,TRUE,GeoData Consultants Ltd,WUA,Mtiro pipeline,TRUE,1960,gravity,gravity,gravity,wua,user-group,never pay,never pay,soft,good,insufficient,insufficient,spring,spring,groundwater,communal standpipe,communal standpipe,non functional
13042,0,10/29/2012,Hesawa,0,DWE,0,-2.00E-08,Kwakisusi,0,Lake Victoria,Nyamatala,Mwanza,19,2,Magu,Malili,0,TRUE,GeoData Consultants Ltd,,,TRUE,0,nira/tanira,nira/tanira,handpump,vwc,user-group,never pay,never pay,soft,good,insufficient,insufficient,shallow well,shallow well,groundwater,hand pump,hand pump,functional needs repair
34877,5000,3/5/2011,Kkkt,1790,Commu,34.3039125,-9.5043126,none,0,Lake Nyasa,Kinyunyu,Iringa,11,3,Makete,Ipepo,0,TRUE,GeoData Consultants Ltd,VWC,Ipepo,FALSE,2003,gravity,gravity,gravity,vwc,user-group,pay annually,annually,soft,good,enough,enough,spring,spring,groundwater,communal standpipe,communal standpipe,functional
10891,0,10/28/2012,Rwssp,0,DWE,32.50515031,-3.91165507,Kwa Kazumba Justina,0,Lake Tanganyika,Nyandekwa,Shinyanga,17,3,Kahama,Nyandekwa,0,TRUE,GeoData Consultants Ltd,,,TRUE,0,other,other,other,wug,user-group,unknown,unknown,milky,milky,dry,dry,shallow well,shallow well,groundwater,other,other,non functional
33500,0,7/18/2011,Hesawa,0,DWE,0,-2.00E-08,Bombani,0,Lake Victoria,Ujamaa,Mwanza,19,6,Geita,Kalangalala,0,TRUE,GeoData Consultants Ltd,VWC,Borehole,TRUE,0,swn 80,swn 80,handpump,vwc,user-group,never pay,never pay,unknown,unknown,dry,dry,machine dbh,borehole,groundwater,hand pump,hand pump,non functional
1012,0,2/3/2013,Fini Water,64,Fini water,39.76790839,-10.37243798,Kwa Mzee Sindano,0,Ruvuma / Southern Coast,Sokoni,Mtwara,99,1,Mtwara Rural,Kitere,800,TRUE,GeoData Consultants Ltd,,,TRUE,1986,other,other,other,vwc,user-group,unknown,unknown,soft,good,enough,enough,shallow well,shallow well,groundwater,other,other,non functional
4321,1000,3/2/2011,Danida,1591,DANID,35.62422947,-7.86001982,none,0,Rufiji,Njia Panda A,Iringa,11,1,Iringa Rural,Mseke,1,TRUE,GeoData Consultants Ltd,VWC,Meseke,TRUE,1984,gravity,gravity,gravity,vwc,user-group,pay monthly,monthly,soft,good,enough,enough,spring,spring,groundwater,communal standpipe,communal standpipe,functional
41162,0,7/15/2011,No,1536,DWE,31.04447027,-7.50921781,Kalondang'Ombe,0,Lake Tanganyika,Kipundu Kati,Rukwa,15,3,Nkasi,Namanyere,1,,GeoData Consultants Ltd,VWC,,FALSE,1987,other,other,other,vwc,user-group,unknown,unknown,unknown,unknown,unknown,unknown,machine dbh,borehole,groundwater,other,other,non functional
31957,0,7/11/2011,Hesawa,0,DWE,31.45223354,-1.29523982,Kwakyembundu,0,Lake Victoria,Bulifani,Kagera,18,7,Misenyi,Kyaka,0,TRUE,GeoData Consultants Ltd,VWC,,TRUE,0,other,other,other,vwc,user-group,never pay,never pay,soft,good,insufficient,insufficient,shallow well,shallow well,groundwater,other,other,non functional
15815,0,1/19/2013,Ministry Of Water,844,Idara ya maji,35.06630886,-5.85530454,Kwa Stephano Masmbwa,0,Internal,Usanguni,Singida,13,3,Manyoni,Chikuyu,250,TRUE,GeoData Consultants Ltd,VWC,Chikuyu water supply,FALSE,1974,mono,mono,motorpump,vwc,user-group,never pay,never pay,soft,good,enough,enough,machine dbh,borehole,groundwater,communal standpipe multiple,communal standpipe,non functional
47462,0,4/2/2011,Tanza,0,MWE &,35.63768716,-6.32118,Kwa Silvester,0,Internal,Chizomoche,Dodoma,1,5,Dodoma Urban,Mbabala,0,TRUE,GeoData Consultants Ltd,VWC,Chiz,FALSE,0,mono,mono,motorpump,vwc,user-group,pay per bucket,per bucket,soft,good,dry,dry,machine dbh,borehole,groundwater,communal standpipe,communal standpipe,non functional
28110,0,10/12/2012,Tasaf,0,TASAF,33.0849318,-3.75139073,Kwa Mange Idege,0,Lake Victoria,Uborwa,Shinyanga,17,3,Shinyanga Rural,Imesela,0,TRUE,GeoData Consultants Ltd,WUG,,TRUE,0,other,other,other,wug,user-group,never pay,never pay,soft,good,seasonal,seasonal,shallow well,shallow well,groundwater,other,other,non functional
52448,0,3/18/2011,Dct,0,Gove,35.91196769,-5.79362559,Kabia,0,Wami / Ruvu,Nyerer,Dodoma,1,6,Bahi,Zanka,0,TRUE,GeoData Consultants Ltd,VWC,Mkon,TRUE,0,gravity,gravity,gravity,vwc,user-group,never pay,never pay,soft,good,enough,enough,spring,spring,groundwater,communal standpipe,communal standpipe,functional
18832,0,3/14/2013,Swisland/ Mount Meru Flowers,1257,Community,36.76604605,-3.39285751,Agape Chekechea,0,Pangani,Moivaro,Arusha,2,7,Meru,Nkoanrua,210,TRUE,GeoData Consultants Ltd,VWC,Loruvani gravity water supply,TRUE,2011,gravity,gravity,gravity,wua,user-group,unknown,unknown,soft,good,enough,enough,spring,spring,groundwater,communal standpipe,communal standpipe,non functional
62720,250,2/14/2013,Dwe,1572,DWE,30.12658076,-4.43681809,Mgunga,0,Lake Tanganyika,Magomeni,Kigoma,16,2,Kasulu,Msambara,320,TRUE,GeoData Consultants Ltd,Water authority,,TRUE,2008,gravity,gravity,gravity,water board,user-group,pay monthly,monthly,soft,good,enough,enough,spring,spring,groundwater,improved spring,improved spring,functional needs repair
14326,0,3/16/2013,Rc Church,625,RC CHURCH,37.56451071,-4.18247567,Rc Church,0,Pangani,Muungano,Kilimanjaro,3,3,Same,Ruvu,87,TRUE,GeoData Consultants Ltd,Water authority,,,2011,windmill,wind-powered,wind-powered,private operator,commercial,never pay,never pay,soft,good,enough,enough,machine dbh,borehole,groundwater,communal standpipe,communal standpipe,functional
36933,0,3/28/2011,Danida,0,DANIDA,33.30381177,-8.95958218,Alioka Mwamlima,0,Lake Rukwa,Tazama,Mbeya,12,2,Mbeya Rural,Iwindi,0,TRUE,GeoData Consultants Ltd,VWC,,TRUE,0,gravity,gravity,gravity,wug,user-group,pay when scheme fails,on failure,soft,good,enough,enough,river,river/lake,surface,communal standpipe,communal standpipe,functional
65093,100,1/22/2013,Fw,338,FW,38.80660601,-10.56479172,Malugunyo,0,Ruvuma / Southern Coast,Madukani,Mtwara,90,33,Masasi,Lukulendi,2530,TRUE,GeoData Consultants Ltd,VWC,FW,TRUE,1974,mono,mono,motorpump,vwc,user-group,pay per bucket,per bucket,salty,salty,enough,enough,machine dbh,borehole,groundwater,communal standpipe multiple,communal standpipe,functional
50139,0,7/29/2011,,0,,33.69121711,-9.45005507,Vilabuni,0,Lake Nyasa,Ilima,Mbeya,12,4,Rungwe,Ilima,0,TRUE,GeoData Consultants Ltd,VWC,M,,0,gravity,gravity,gravity,vwc,user-group,never pay,never pay,soft,good,enough,enough,spring,spring,groundwater,communal standpipe,communal standpipe,non functional
36455,0,10/10/2012,Africare,0,TDFT,32.74750562,-5.630633,Kwa Hassan Kasonta,0,Lake Tanganyika,Usega,Tabora,14,5,Sikonge,Sikonge,0,FALSE,GeoData Consultants Ltd,VWC,Mradi wa maji wa sikonge,TRUE,0,other,other,other,vwc,user-group,never pay,never pay,soft,good,dry,dry,shallow well,shallow well,groundwater,hand pump,hand pump,non functional
49732,0,8/6/2011,Danida,0,DANIDA,32.71120577,-8.81026548,Nasaji,0,Lake Rukwa,Ipenya,Mbeya,12,6,Mbozi,Nambinzo,0,FALSE,GeoData Consultants Ltd,VWC,,FALSE,0,swn 80,swn 80,handpump,vwc,user-group,never pay,never pay,soft,good,enough,enough,machine dbh,borehole,groundwater,hand pump,hand pump,functional
20200,0,10/13/2012,Dwsp,0,DWSP,33.06037263,-3.83408324,Shojababi,0,Internal,Chembeli,Shinyanga,17,3,Shinyanga Rural,Didia,0,TRUE,GeoData Consultants Ltd,WUG,,TRUE,0,nira/tanira,nira/tanira,handpump,wug,user-group,never pay,never pay,soft,good,insufficient,insufficient,shallow well,shallow well,groundwater,hand pump,hand pump,functional
43777,0,1/16/2013,Norad /government,1286,RWE/DWE,30.5365143,-3.79134872,Sokoni,0,Lake Tanganyika,Kinani,Kigoma,16,1,Kibondo,Rugongowe,450,TRUE,GeoData Consultants Ltd,VWC,Kigaga gravity water supply,FALSE,1988,gravity,gravity,gravity,vwc,user-group,unknown,unknown,soft,good,enough,enough,river,river/lake,surface,communal standpipe multiple,communal standpipe,functional
42497,0,2/14/2013,Danida,458,DANIDA,34.73579846,-11.16676157,Kwa Mzee Maluka,0,Lake Nyasa,Kawawa,Ruvuma,10,3,Mbinga,Lipingo,86,,GeoData Consultants Ltd,VWC,DANIDA,TRUE,1990,gravity,gravity,gravity,vwc,user-group,unknown,unknown,soft,good,dry,dry,spring,spring,groundwater,communal standpipe,communal standpipe,non functional
52601,0,3/21/2011,Dhv,326,DWE,36.36552941,-8.77905499,Kituo Cha Walimu,0,Rufiji,Dakusi,Morogoro,5,4,Ulanga,Mtimbira,1,TRUE,GeoData Consultants Ltd,Water Board,Mtimbira,TRUE,1995,gravity,gravity,gravity,wug,user-group,never pay,never pay,soft,good,enough,enough,river,river/lake,surface,communal standpipe,communal standpipe,functional
65530,0,3/13/2011,British Colonial Government,0,DWE,39.11013687,-4.75461109,Magaoni,0,Pangani,Magaoni,Tanga,4,8,Mkinga,Duga,1,TRUE,GeoData Consultants Ltd,VWC,Deep well,TRUE,1961,other,other,other,vwc,user-group,never pay,never pay,salty abandoned,salty,dry,dry,other,other,unknown,other,other,non functional
73024,0,3/2/2013,Government Of Tanzania,1445,Central govt,37.67816216,-3.69879186,Kwa Kituku,0,Pangani,Mbale,Kilimanjaro,3,2,Mwanga,Kirongwe,80,TRUE,GeoData Consultants Ltd,VWC,Kindoroko water supply,FALSE,1972,gravity,gravity,gravity,vwc,user-group,never pay,never pay,soft,good,insufficient,insufficient,spring,spring,groundwater,communal standpipe,communal standpipe,functional
18842,0,7/22/2011,Co,1886,DWE,31.35287524,-7.68709583,Shule Ya Msingi,0,Lake Rukwa,Fuzi,Rukwa,15,3,Nkasi,Chala,1,FALSE,GeoData Consultants Ltd,VWC,,FALSE,1984,ksb,submersible,submersible,vwc,user-group,never pay,never pay,unknown,unknown,enough,enough,river,river/lake,surface,communal standpipe,communal standpipe,functional needs repair
9474,250,2/12/2013,World Bank,1343,World Bank,30.01709818,-4.33258278,Jeshini,0,Lake Tanganyika,Rulemba,Kigoma,16,2,Kasulu,Munyegera,50,TRUE,GeoData Consultants Ltd,Water authority,Kabuye,TRUE,1982,gravity,gravity,gravity,water board,user-group,pay monthly,monthly,soft,good,insufficient,insufficient,river,river/lake,surface,communal standpipe,communal standpipe,functional
44434,0,1/29/2013,Unicef,1499,TWESA,30.70845573,-3.59108444,Kabigwa Primary School,0,Lake Tanganyika,Kabigwa,Kigoma,16,1,Kibondo,Kibondo Urban,450,TRUE,GeoData Consultants Ltd,VWC,,FALSE,2010,gravity,gravity,gravity,vwc,user-group,unknown,unknown,soft,good,insufficient,insufficient,rainwater harvesting,rainwater harvesting,surface,communal standpipe,communal standpipe,functional
36366,0,10/10/2012,Tcrs,0,TCRS,33.83495799,-3.76408399,Shule,0,Internal,Bukurwa,Shinyanga,17,8,Kishapu,Mwamashele,0,TRUE,GeoData Consultants Ltd,VWC,Tungu water piped scheme,TRUE,0,gravity,gravity,gravity,vwc,user-group,pay per bucket,per bucket,soft,good,enough,enough,river,river/lake,surface,communal standpipe multiple,communal standpipe,functional
47236,0,1/4/2013,Government Of Tanzania,1564,DWE,36.65864318,-3.3307891,Kwa Loibulu,0,Pangani,Tarakwa,Arusha,2,2,Arusha Rural,Murieti,150,TRUE,GeoData Consultants Ltd,VWC,Saitero olosaita pipe line,TRUE,2002,gravity,gravity,gravity,vwc,user-group,never pay,never pay,soft,good,insufficient,insufficient,spring,spring,groundwater,communal standpipe,communal standpipe,non functional
8633,500,2/3/2013,Government Of Tanzania,991,DWE,30.39148972,-5.10506992,Kwa Lugai,0,Lake Tanganyika,Mnazi Mmoja,Kigoma,16,3,Kigoma Rural,Uvinza,150,FALSE,GeoData Consultants Ltd,VWC,Nyanza water project,TRUE,1997,gravity,gravity,gravity,vwc,user-group,pay monthly,monthly,soft,good,insufficient,insufficient,river,river/lake,surface,communal standpipe multiple,communal standpipe,functional needs repair
